40,30*70
$GPRMC,115246.000,A,4909.5072,N,02013.5794,E,2.23,121.08,040908,,*01
$GPGGA,115247.000,4909.5069,N,02013.5808,E,1,05,2.3,1280.3,M,41.8,M,,0000*62
$GPGSA,A,3,15,04,17,12,09,,,,,,,,3.7,2.3,3.0*38
$GPGSV,2,1,08,09,86,193,32,12,61,267,27,17,33,051,38,14,20,320,27*77
$GPGSV,2,2,08,04,18,105,38,30,16,260,24,15,14,184,28,02,06,140,30*71
$GPRMC,115247.000,A,4909.5069,N,02013.5808,E,2.11,107.52,040908,,*0A
$GPGGA,115248.000,4909.5066,N,02013.5819,E,1,05,2.3,1280.1,M,41.8,M,,0000*60
$GPGSA,A,3,15,04,17,12,09,,,,,,,,3.7,2.3,3.0*38
$GPGSV,2,1,08,09,86,193,32,12,61,267,27,17,33,051,38,14,20,320,26*76
$GPGSV,2,2,08,04,18,105,38,30,16,260,24,15,14,184,28,02,06,140,30*71
$GPRMC,115248.000,A,4909.5066,N,02013.5819,E,2.09,125.76,040908,,*05
$GPGGA,115249.000,4909.5063,N,02013.5830,E,1,05,2.3,1280.0,M,41.8,M,,0000*6E
$GPGSA,A,3,15,04,17,12,09,,,,,,,,3.7,2.3,3.0*38
$GPGSV,2,1,08,09,86,193,33,12,61,267,27,17,33,051,38,14,20,320,26*77
$GPGSV,2,2,08,04,18,105,38,30,16,260,24,15,14,184,28,02,06,140,29*79
$GPRMC,115249.000,A,4909.5063,N,02013.5830,E,2.43,102.42,040908,,*06
$GPGGA,115250.000,4909.5061,N,02013.5839,E,1,05,2.3,1279.8,M,41.8,M,,0000*63
$GPGSA,A,3,15,04,17,12,09,,,,,,,,3.7,2.3,3.0*38
$GPGSV,2,1,08,09,86,193,36,12,61,267,27,17,33,051,37,14,20,320,26*7D
$GPGSV,2,2,08,04,18,105,38,30,16,260,24,15,14,184,28,02,06,140,25*75
$GPRMC,115250.000,A,4909.5061,N,02013.5839,E,2.01,113.73,040908,,*01
$GPGGA,115251.000,4909.5058,N,02013.5844,E,1,05,2.3,1279.5,M,41.8,M,,0000*6F
$GPGSA,A,3,15,04,17,12,09,,,,,,,,3.7,2.3,3.0*38
$GPGSV,2,1,08,09,86,193,29,12,61,267,25,17,33,051,31,14,20,320,18*7A
$GPGSV,2,2,08,04,18,105,32,30,16,260,19,15,14,184,25,02,06,140,26*7F
$GPRMC,115251.000,A,4909.5058,N,02013.5844,E,1.73,163.05,040908,,*00
$GPGGA,115252.000,4909.5056,N,02013.5844,E,1,05,2.3,1278.7,M,41.8,M,,0000*61
$GPGSA,A,3,15,04,17,12,09,,,,,,,,3.7,2.3,3.0*38
$GPGSV,2,1,08,09,86,193,26,12,61,267,20,17,33,051,26,14,20,320,19*77
$GPGSV,2,2,08,04,18,105,25,30,16,260,18,15,14,184,22,02,06,140,27*7E
$GPRMC,115252.000,A,4909.5056,N,02013.5844,E,1.05,139.64,040908,,*04
$GPGGA,115253.000,4909.5052,N,02013.5856,E,1,05,2.3,1279.5,M,41.8,M,,0000*64
$GPGSA,A,3,15,04,17,12,09,,,,,,,,3.7,2.3,3.0*38
$GPGSV,2,1,08,09,86,193,27,12,61,267,20,17,33,051,27,14,20,320,18*76
$GPGSV,2,2,08,04,18,105,26,30,16,260,17,15,14,184,23,02,06,140,26*72
$GPRMC,115253.000,A,4909.5052,N,02013.5856,E,1.52,101.29,040908,,*02
$GPGGA,115254.000,4909.5050,N,02013.5868,E,1,05,2.3,1279.1,M,41.8,M,,0000*68
$GPGSA,A,3,15,04,17,12,09,,,,,,,,3.7,2.3,3.0*38
$GPGSV,2,1,08,09,86,193,26,12,61,267,21,17,33,051,29,14,20,320,18*78
$GPGSV,2,2,08,04,18,105,26,30,16,260,17,15,14,184,28,02,06,140,26*79
$GPRMC,115254.000,A,4909.5050,N,02013.5868,E,2.14,108.01,040908,,*08
$GPGGA,115255.000,4909.5048,N,02013.5880,E,1,05,2.3,1278.7,M,41.8,M,,0000*61
$GPGSA,A,3,15,04,17,12,09,,,,,,,,3.7,2.3,3.0*38
$GPGSV,2,1,08,09,86,193,33,12,61,267,21,17,33,051,31,14,20,320,18*75
$GPGSV,2,2,08,04,18,105,29,30,16,260,18,15,14,184,32,02,06,140,26*72
$GPRMC,115255.000,A,4909.5048,N,02013.5880,E,2.86,102.36,040908,,*03
$GPGGA,115256.000,4909.5043,N,02013.5897,E,1,05,2.3,1278.9,M,41.8,M,,0000*61
$GPGSA,A,3,15,04,17,12,09,,,,,,,,3.7,2.3,3.0*38
$GPGSV,2,1,08,09,86,193,33,12,61,267,22,17,33,051,32,14,20,320,22*7C
$GPGSV,2,2,08,04,18,105,30,30,16,260,24,15,14,184,30,02,06,140,26*77
$GPRMC,115256.000,A,4909.5043,N,02013.5897,E,3.08,126.36,040908,,*0C
$GPGGA,115257.000,4909.5036,N,02013.5907,E,1,05,2.3,1278.7,M,41.8,M,,0000*64
$GPGSA,A,3,15,04,17,12,09,,,,,,,,3.7,2.3,3.0*38
$GPGSV,2,1,08,09,86,193,33,12,61,267,22,17,33,051,33,14,20,320,23*7C
$GPGSV,2,2,08,04,18,105,29,30,16,260,25,15,14,184,29,02,06,140,26*76
$GPRMC,115257.000,A,4909.5036,N,02013.5907,E,2.52,155.17,040908,,*0E
$GPGGA,115258.000,4909.5032,N,02013.5915,E,1,05,2.3,1278.3,M,41.8,M,,0000*68
$GPGSA,A,3,15,04,17,12,09,,,,,,,,3.7,2.3,3.0*38
$GPGSV,2,1,08,09,86,193,33,12,61,267,23,17,33,051,32,14,20,320,23*7C
$GPGSV,2,2,08,04,18,105,30,30,16,260,24,15,14,184,26,02,06,140,28*7E
$GPRMC,115258.000,A,4909.5032,N,02013.5915,E,1.87,129.52,040908,,*07
$GPGGA,115259.000,4909.5029,N,02013.5929,E,1,05,2.3,1278.7,M,41.8,M,,0000*68
$GPGSA,A,3,15,04,17,12,09,,,,,,,,3.7,2.3,3.0*38
$GPGSV,2,1,08,09,86,193,33,12,61,267,23,17,33,051,28,14,20,320,23*77
$GPGSV,2,2,08,04,18,105,31,30,16,260,24,15,14,184,26,02,06,140,27*70
$GPRMC,115259.000,A,4909.5029,N,02013.5929,E,1.97,97.26,040908,,*35
$GPGGA,115300.000,4909.5023,N,02013.5941,E,1,05,2.3,1278.8,M,41.8,M,,0000*6E
$GPGSA,A,3,15,04,17,12,09,,,,,,,,3.7,2.3,3.0*38
$GPGSV,2,1,08,09,86,193,34,12,61,267,23,17,33,051,27,14,20,320,23*7F
$GPGSV,2,2,08,04,18,105,31,30,16,260,23,15,14,184,26,02,06,140,28*78
$GPRMC,115300.000,A,4909.5023,N,02013.5941,E,2.61,133.30,040908,,*0E
$GPGGA,115301.000,4909.5019,N,02013.5950,E,1,05,2.3,1279.0,M,41.8,M,,0000*6F
$GPGSA,A,3,15,04,17,12,09,,,,,,,,3.7,2.3,3.0*38
$GPGSV,2,1,08,09,86,193,34,12,61,267,24,17,33,051,32,14,20,320,23*7C
$GPGSV,2,2,08,04,18,105,31,30,16,260,23,15,14,184,26,02,06,140,28*78
$GPRMC,115301.000,A,4909.5019,N,02013.5950,E,2.05,118.58,040908,,*03
$GPGGA,115302.000,4909.5013,N,02013.5964,E,1,05,2.3,1280.0,M,41.8,M,,0000*67
$GPGSA,A,3,15,04,17,12,09,,,,,,,,3.7,2.3,3.0*38
$GPGSV,2,1,08,09,86,193,34,12,61,267,24,17,33,051,35,14,20,320,23*7B
$GPGSV,2,2,08,04,18,105,32,30,16,260,23,15,14,184,27,02,06,140,28*7A
$GPRMC,115302.000,A,4909.5013,N,02013.5964,E,2.48,120.46,040908,,*00
$GPGGA,115303.000,4909.5010,N,02013.5974,E,1,05,2.3,1279.9,M,41.8,M,,0000*6B
$GPGSA,A,3,15,04,17,12,09,,,,,,,,3.7,2.3,3.0*38
$GPGSV,2,1,08,09,86,193,32,12,61,267,24,17,33,051,34,14,20,320,23*7C
$GPGSV,2,2,08,04,18,105,31,30,16,260,23,15,14,184,30,02,06,140,28*7F
$GPRMC,115303.000,A,4909.5010,N,02013.5974,E,2.16,111.52,040908,,*0F
$GPGGA,115304.000,4909.5007,N,02013.5988,E,1,05,2.3,1280.1,M,41.8,M,,0000*67
$GPGSA,A,3,15,04,17,12,09,,,,,,,,3.7,2.3,3.0*38
$GPGSV,2,1,08,09,86,193,32,12,61,267,24,17,33,051,33,14,20,320,22*7A
$GPGSV,2,2,08,04,18,105,31,30,16,260,23,15,14,184,31,02,06,140,32*75
$GPRMC,115304.000,A,4909.5007,N,02013.5988,E,2.36,105.01,040908,,*0C
$GPGGA,115305.000,4909.5005,N,02013.6003,E,1,05,2.3,1280.0,M,41.8,M,,0000*6C
$GPGSA,A,3,15,04,17,12,09,,,,,,,,3.7,2.3,3.0*38
$GPGSV,2,1,08,09,86,193,32,12,61,267,24,17,33,051,34,14,20,320,22*7D
$GPGSV,2,2,08,04,18,105,31,30,16,260,23,15,14,184,31,02,06,140,24*72
$GPRMC,115305.000,A,4909.5005,N,02013.6003,E,2.68,109.11,040908,,*00
$GPGGA,115306.000,4909.5005,N,02013.6010,E,1,05,2.3,1278.5,M,41.8,M,,0000*6F
$GPGSA,A,3,15,04,17,12,09,,,,,,,,3.7,2.3,3.0*38
$GPGSV,2,1,08,09,86,193,31,12,61,267,24,17,33,051,41,14,20,320,22*7C
$GPGSV,2,2,08,04,18,105,24,30,16,260,23,15,14,184,31,02,06,140,29*7B
$GPRMC,115306.000,A,4909.5005,N,02013.6010,E,2.44,110.76,040908,,*06
$GPGGA,115307.000,4909.5006,N,02013.6011,E,1,05,2.3,1276.9,M,41.8,M,,0000*6E
$GPGSA,A,3,15,04,17,12,09,,,,,,,,3.7,2.3,3.0*38
$GPGSV,2,1,08,09,86,193,31,12,61,267,25,17,33,051,40,14,20,320,22*7C
$GPGSV,2,2,08,04,18,105,26,30,16,260,23,15,14,184,28,02,06,140,29*71
$GPRMC,115307.000,A,4909.5006,N,02013.6011,E,1.36,124.94,040908,,*08
$GPGGA,115308.000,4909.5005,N,02013.6019,E,1,05,2.3,1276.2,M,41.8,M,,0000*61
$GPGSA,A,3,15,04,17,12,09,,,,,,,,3.7,2.3,3.0*38
$GPGSV,2,1,08,09,86,193,24,12,61,267,25,17,33,051,35,14,20,320,22*7A
$GPGSV,2,2,08,04,18,105,35,30,16,260,23,15,14,184,29,02,06,140,28*73
$GPRMC,115308.000,A,4909.5005,N,02013.6019,E,1.93,120.88,040908,,*0A
$GPGGA,115309.000,4909.5004,N,02013.6024,E,1,05,2.3,1275.4,M,41.8,M,,0000*6A
$GPGSA,A,3,15,04,17,12,09,,,,,,,,3.7,2.3,3.0*38
$GPGSV,2,1,08,09,86,193,27,12,61,267,27,17,33,051,33,14,20,320,23*7C
$GPGSV,2,2,08,04,18,105,31,30,16,260,23,15,14,184,30,02,06,140,24*73
$GPRMC,115309.000,A,4909.5004,N,02013.6024,E,1.37,106.37,040908,,*0A
$GPGGA,115310.000,4909.5006,N,02013.6027,E,1,05,2.3,1274.0,M,41.8,M,,0000*66
$GPGSA,A,3,15,04,17,12,09,,,,,,,,3.7,2.3,2.9*30
$GPGSV,2,1,08,09,86,193,29,12,61,267,27,17,33,051,35,14,20,320,22*75
$GPGSV,2,2,08,04,18,105,30,30,16,260,23,15,14,184,30,02,06,140,25*73
$GPRMC,115310.000,A,4909.5006,N,02013.6027,E,0.44,122.22,040908,,*04
$GPGGA,115311.000,4909.5003,N,02013.6040,E,1,05,2.3,1273.7,M,41.8,M,,0000*63
$GPGSA,A,3,15,04,17,12,09,,,,,,,,3.7,2.3,2.9*30
$GPGSV,2,1,08,09,86,193,29,12,61,267,26,17,33,051,38,14,20,320,23*78
$GPGSV,2,2,08,04,18,105,30,30,16,260,23,15,14,184,30,02,06,140,28*7E
$GPRMC,115311.000,A,4909.5003,N,02013.6040,E,2.14,104.28,040908,,*08
$GPGGA,115312.000,4909.4999,N,02013.6054,E,1,05,2.3,1274.0,M,41.8,M,,0000*6E
$GPGSA,A,3,15,04,17,12,09,,,,,,,,3.7,2.3,2.9*30
$GPGSV,2,1,08,09,86,193,30,12,61,267,26,17,33,051,40,14,20,320,24*78
$GPGSV,2,2,08,04,18,105,29,30,16,260,23,15,14,184,30,02,06,140,28*76
$GPRMC,115312.000,A,4909.4999,N,02013.6054,E,2.41,107.23,040908,,*0D
$GPGGA,115313.000,4909.4997,N,02013.6063,E,1,05,2.3,1273.9,M,41.8,M,,0000*6B
$GPGSA,A,3,15,04,17,12,09,,,,,,,,3.7,2.3,2.9*30
$GPGSV,2,1,08,09,86,193,32,12,61,267,26,17,33,051,37,14,20,320,24*7A
$GPGSV,2,2,08,04,18,105,30,30,16,260,23,15,14,184,30,02,06,140,25*73
$GPRMC,115313.000,A,4909.4997,N,02013.6063,E,1.10,113.95,040908,,*09
$GPGGA,115314.000,4909.4994,N,02013.6074,E,1,05,2.3,1273.7,M,41.8,M,,0000*67
$GPGSA,A,3,15,04,17,12,09,,,,,,,,3.7,2.3,2.9*30
$GPGSV,2,1,08,09,86,193,36,12,61,267,26,17,33,051,35,14,20,320,24*7C
$GPGSV,2,2,08,04,18,105,30,30,16,260,23,15,14,184,30,02,06,140,25*73
$GPRMC,115314.000,A,4909.4994,N,02013.6074,E,2.05,107.88,040908,,*05
$GPGGA,115315.000,4909.4990,N,02013.6089,E,1,05,2.3,1273.9,M,41.8,M,,0000*6E
$GPGSA,A,3,15,04,17,12,09,,,,,,,,3.7,2.3,2.9*30
$GPGSV,2,1,08,09,86,193,36,12,61,267,26,17,33,051,36,14,20,320,24*7F
$GPGSV,2,2,08,04,18,105,27,30,16,260,23,15,14,184,30,02,06,140,26*76
$GPRMC,115315.000,A,4909.4990,N,02013.6089,E,2.53,106.57,040908,,*02
$GPGGA,115316.000,4909.4986,N,02013.6102,E,1,05,2.3,1273.9,M,41.8,M,,0000*68
$GPGSA,A,3,15,04,17,12,09,,,,,,,,3.7,2.3,2.9*30
$GPGSV,2,1,08,09,86,193,35,12,61,267,26,17,33,051,35,14,20,320,24*7F
$GPGSV,2,2,08,04,18,105,26,30,16,260,23,15,14,184,30,02,06,140,25*74
$GPRMC,115316.000,A,4909.4986,N,02013.6102,E,1.77,111.40,040908,,*01
$GPGGA,115317.000,4909.4984,N,02013.6108,E,1,05,2.2,1273.2,M,41.8,M,,0000*6B
$GPGSA,A,3,15,04,17,12,09,,,,,,,,3.7,2.2,2.9*31
$GPGSV,2,1,08,09,86,193,36,12,61,267,30,17,33,051,36,14,20,320,24*78
$GPGSV,2,2,08,04,18,105,26,30,16,260,23,15,14,184,30,02,06,140,27*76
$GPRMC,115317.000,A,4909.4984,N,02013.6108,E,1.97,120.48,040908,,*0C
$GPGGA,115318.000,4909.4978,N,02013.6124,E,1,05,2.2,1273.2,M,41.8,M,,0000*69
$GPGSA,A,3,15,04,17,12,09,,,,,,,,3.7,2.2,2.9*31
$GPGSV,2,1,08,09,86,193,36,12,61,267,29,17,33,051,36,14,20,320,24*70
$GPGSV,2,2,08,04,18,105,27,30,16,260,23,15,14,184,30,02,06,140,28*78
$GPRMC,115318.000,A,4909.4978,N,02013.6124,E,3.21,122.40,040908,,*0B
$GPGGA,115319.000,4909.4973,N,02013.6140,E,1,05,2.2,1273.4,M,41.8,M,,0000*67
$GPGSA,A,3,15,04,17,12,09,,,,,,,,3.7,2.2,2.9*31
$GPGSV,2,1,08,09,86,193,36,12,61,267,28,17,33,051,36,14,20,320,24*71
$GPGSV,2,2,08,04,18,105,28,30,16,260,23,15,14,184,29,02,06,140,29*7E
$GPRMC,115319.000,A,4909.4973,N,02013.6140,E,2.93,110.57,040908,,*0C
$GPGGA,115320.000,4909.4970,N,02013.6153,E,1,05,2.2,1273.7,M,41.8,M,,0000*6F
$GPGSA,A,3,15,04,17,12,09,,,,,,,,3.7,2.2,2.9*31
$GPGSV,2,1,08,09,86,193,36,12,61,267,27,17,33,051,36,14,20,320,24*7E
$GPGSV,2,2,08,04,18,105,34,30,16,260,23,15,14,184,29,02,06,140,30*7B
$GPRMC,115320.000,A,4909.4970,N,02013.6153,E,1.36,84.46,040908,,*37
$GPGGA,115321.000,4909.4969,N,02013.6162,E,1,05,2.2,1273.7,M,41.8,M,,0000*64
$GPGSA,A,3,15,04,17,12,09,,,,,,,,3.7,2.2,2.9*31
$GPGSV,2,1,08,09,86,193,35,12,61,267,27,17,33,051,36,14,20,320,24*7D
$GPGSV,2,2,08,04,18,105,31,30,16,260,23,15,14,184,29,02,06,140,31*7F
$GPRMC,115321.000,A,4909.4969,N,02013.6162,E,1.94,105.95,040908,,*02
$GPGGA,115322.000,4909.4965,N,02013.6175,E,1,05,2.2,1273.7,M,41.8,M,,0000*6D
$GPGSA,A,3,15,04,17,12,09,,,,,,,,3.7,2.2,2.9*31
$GPGSV,2,1,08,09,86,193,35,12,61,267,27,17,33,051,36,14,20,320,24*7D
$GPGSV,2,2,08,04,18,105,30,30,16,260,23,15,14,184,29,02,06,140,30*7F
$GPRMC,115322.000,A,4909.4965,N,02013.6175,E,2.91,122.77,040908,,*04
$GPGGA,115323.000,4909.4960,N,02013.6190,E,1,05,2.2,1273.7,M,41.8,M,,0000*62
$GPGSA,A,3,15,04,17,12,09,,,,,,,,3.7,2.2,2.9*31
$GPGSV,2,1,08,09,86,193,35,12,61,267,27,17,33,051,35,14,20,320,24*7E
$GPGSV,2,2,08,04,18,105,29,30,16,260,23,15,14,184,29,02,06,140,28*7E
$GPRMC,115323.000,A,4909.4960,N,02013.6190,E,2.12,114.15,040908,,*01
$GPGGA,115324.000,4909.4954,N,02013.6206,E,1,05,2.2,1273.8,M,41.8,M,,0000*61
$GPGSA,A,3,15,04,17,12,09,,,,,,,,3.7,2.2,2.9*31
$GPGSV,2,1,08,09,86,193,35,12,61,267,27,17,33,051,35,14,20,320,24*7E
$GPGSV,2,2,08,04,18,105,31,30,16,260,23,15,14,184,29,02,06,140,27*78
$GPRMC,115324.000,A,4909.4954,N,02013.6206,E,2.72,123.71,040908,,*0D
$GPGGA,115325.000,4909.4947,N,02013.6223,E,1,05,2.2,1274.0,M,41.8,M,,0000*6A
$GPGSA,A,3,15,04,17,12,09,,,,,,,,3.7,2.2,2.9*31
$GPGSV,2,1,08,09,86,193,35,12,61,267,27,17,33,051,35,14,20,320,24*7E
$GPGSV,2,2,08,04,18,105,31,30,16,260,23,15,14,184,29,02,06,140,27*78
$GPRMC,115325.000,A,4909.4947,N,02013.6223,E,2.65,124.17,040908,,*08
$GPGGA,115326.000,4909.4942,N,02013.6240,E,1,05,2.2,1274.4,M,41.8,M,,0000*6D
$GPGSA,A,3,15,04,17,12,09,,,,,,,,3.7,2.2,2.9*31
$GPGSV,2,1,08,09,86,193,35,12,61,267,27,17,33,051,36,14,20,320,23*7A
$GPGSV,2,2,08,04,18,105,28,30,16,260,23,15,14,184,29,02,06,140,26*71
$GPRMC,115326.000,A,4909.4942,N,02013.6240,E,3.14,112.19,040908,,*07
$GPGGA,115327.000,4909.4938,N,02013.6253,E,1,05,2.2,1274.1,M,41.8,M,,0000*66
$GPGSA,A,3,15,04,17,12,09,,,,,,,,3.7,2.2,2.9*31
$GPGSV,2,1,08,09,86,193,35,12,61,267,27,17,33,051,36,14,20,320,23*7A
$GPGSV,2,2,08,04,18,105,26,30,16,260,23,15,14,184,29,02,06,140,26*7F
$GPRMC,115327.000,A,4909.4938,N,02013.6253,E,2.58,111.62,040908,,*0F
$GPGGA,115328.000,4909.4936,N,02013.6264,E,1,05,2.2,1273.8,M,41.8,M,,0000*6D
$GPGSA,A,3,15,04,17,12,09,,,,,,,,3.7,2.2,2.9*31
$GPGSV,2,1,08,09,86,193,35,12,61,267,27,17,33,051,36,14,20,320,23*7A
$GPGSV,2,2,08,04,18,105,29,30,16,260,23,15,14,184,29,02,06,140,26*70
$GPRMC,115328.000,A,4909.4936,N,02013.6264,E,2.25,107.01,040908,,*02
$GPGGA,115329.000,4909.4935,N,02013.6271,E,1,05,2.2,1273.3,M,41.8,M,,0000*60
$GPGSA,A,3,15,04,17,12,09,,,,,,,,3.7,2.2,2.9*31
$GPGSV,2,1,08,09,86,193,35,12,61,267,27,17,33,051,36,14,20,320,24*7D
$GPGSV,2,2,08,04,18,105,29,30,16,260,23,15,14,184,29,02,06,140,27*71
$GPRMC,115329.000,A,4909.4935,N,02013.6271,E,1.78,108.68,040908,,*0F
$GPGGA,115330.000,4909.4932,N,02013.6284,E,1,05,2.2,1273.4,M,41.8,M,,0000*62
$GPGSA,A,3,15,04,17,12,09,,,,,,,,3.7,2.2,2.9*31
$GPGSV,2,1,08,09,86,193,35,12,61,267,26,17,33,051,36,14,20,320,24*7C
$GPGSV,2,2,08,04,18,105,29,30,16,260,23,15,14,184,29,02,06,140,26*70
$GPRMC,115330.000,A,4909.4932,N,02013.6284,E,1.77,109.61,040908,,*0D
$GPGGA,115331.000,4909.4930,N,02013.6293,E,1,05,2.2,1273.3,M,41.8,M,,0000*60
$GPGSA,A,3,15,04,17,12,09,,,,,,,,3.7,2.2,2.9*31
$GPGSV,2,1,08,09,86,193,35,12,61,267,26,17,33,051,36,14,20,320,24*7C
$GPGSV,2,2,08,04,18,105,37,30,16,260,23,15,14,184,28,02,06,140,26*7E
$GPRMC,115331.000,A,4909.4930,N,02013.6293,E,2.12,99.35,040908,,*31
$GPGGA,115332.000,4909.4930,N,02013.6300,E,1,05,2.2,1273.2,M,41.8,M,,0000*69
$GPGSA,A,3,15,04,17,12,09,,,,,,,,3.7,2.2,2.9*31
$GPGSV,2,1,08,09,86,193,35,12,61,267,26,17,33,051,32,14,20,320,23*7F
$GPGSV,2,2,08,04,18,105,30,30,16,260,23,15,14,184,28,02,06,140,26*79
$GPRMC,115332.000,A,4909.4930,N,02013.6300,E,1.44,83.99,040908,,*34
$GPGGA,115333.000,4909.4929,N,02013.6302,E,1,05,2.2,1272.8,M,41.8,M,,0000*69
$GPGSA,A,3,15,04,17,12,09,,,,,,,,3.7,2.2,2.9*31
$GPGSV,2,1,08,09,86,193,35,12,61,267,26,17,33,051,31,14,20,320,23*7C
$GPGSV,2,2,08,04,18,105,27,30,16,260,23,15,14,184,32,02,06,140,26*74
$GPRMC,115333.000,A,4909.4929,N,02013.6302,E,1.26,114.37,040908,,*00
$GPGGA,115334.000,4909.4926,N,02013.6306,E,1,05,2.2,1272.5,M,41.8,M,,0000*68
$GPGSA,A,3,15,04,17,12,09,,,,,,,,3.7,2.2,2.9*31
$GPGSV,2,1,08,09,86,193,35,12,61,267,26,17,33,051,31,14,20,320,23*7C
$GPGSV,2,2,08,04,18,105,31,30,16,260,23,15,14,184,31,02,06,140,29*7F
$GPRMC,115334.000,A,4909.4926,N,02013.6306,E,1.86,136.76,040908,,*03
$GPGGA,115335.000,4909.4924,N,02013.6309,E,1,05,2.2,1272.2,M,41.8,M,,0000*63
$GPGSA,A,3,15,04,17,12,09,,,,,,,,3.7,2.2,2.9*31
$GPGSV,2,1,08,09,86,193,35,12,61,267,26,17,33,051,31,14,20,320,23*7C
$GPGSV,2,2,08,04,18,105,31,30,16,260,23,15,14,184,31,02,06,140,30*77
$GPRMC,115335.000,A,4909.4924,N,02013.6309,E,0.80,170.73,040908,,*0F
$GPGGA,115336.000,4909.4917,N,02013.6320,E,1,05,2.2,1272.5,M,41.8,M,,0000*6C
$GPGSA,A,3,15,04,17,12,09,,,,,,,,3.7,2.2,2.9*31
$GPGSV,2,1,08,09,86,193,35,12,61,267,26,17,33,051,31,14,20,320,23*7C
$GPGSV,2,2,08,04,18,105,33,30,16,260,23,15,14,184,31,02,06,140,30*75
$GPRMC,115336.000,A,4909.4917,N,02013.6320,E,2.38,129.40,040908,,*0A
$GPGGA,115337.000,4909.4913,N,02013.6333,E,1,05,2.2,1272.5,M,41.8,M,,0000*6B
$GPGSA,A,3,15,04,17,12,09,,,,,,,,3.7,2.2,2.9*31
$GPGSV,2,1,08,09,86,193,35,12,61,267,26,17,33,051,33,14,20,320,23*7E
$GPGSV,2,2,08,04,18,105,38,30,16,260,23,15,14,184,30,02,06,140,29*77
$GPRMC,115337.000,A,4909.4913,N,02013.6333,E,2.72,105.47,040908,,*0A
$GPGGA,115338.000,4909.4910,N,02013.6347,E,1,05,2.2,1272.7,M,41.8,M,,0000*66
$GPGSA,A,3,15,04,17,12,09,,,,,,,,3.7,2.2,2.9*31
$GPGSV,2,1,08,09,86,193,35,12,61,267,26,17,33,051,32,14,20,320,22*7E
$GPGSV,2,2,08,04,18,105,36,30,16,260,23,15,14,184,30,02,06,140,29*79
$GPRMC,115338.000,A,4909.4910,N,02013.6347,E,2.64,109.82,040908,,*07
$GPGGA,115339.000,4909.4907,N,02013.6359,E,1,05,2.2,1272.5,M,41.8,M,,0000*6C
$GPGSA,A,3,15,04,17,12,09,,,,,,,,3.7,2.2,2.9*31
$GPGSV,2,1,08,09,86,193,35,12,61,267,26,17,33,051,39,14,20,320,22*75
$GPGSV,2,2,08,04,18,105,36,30,16,260,23,15,14,184,30,02,06,140,28*78
$GPRMC,115339.000,A,4909.4907,N,02013.6359,E,2.83,106.26,040908,,*07
$GPGGA,115340.000,4909.4904,N,02013.6373,E,1,05,2.2,1272.6,M,41.8,M,,0000*6A
$GPGSA,A,3,15,04,17,12,09,,,,,,,,3.7,2.2,2.9*31
$GPGSV,2,1,08,09,86,193,34,12,61,267,26,17,33,051,39,14,20,320,22*74
$GPGSV,2,2,08,04,18,105,37,30,16,260,23,15,14,184,30,02,06,140,28*79
$GPRMC,115340.000,A,4909.4904,N,02013.6373,E,1.99,101.90,040908,,*00
$GPGGA,115341.000,4909.4902,N,02013.6385,E,1,05,2.2,1272.6,M,41.8,M,,0000*64
$GPGSA,A,3,15,04,17,12,09,,,,,,,,3.7,2.2,2.9*31
$GPGSV,2,1,08,09,86,193,33,12,61,267,26,17,33,051,38,14,20,320,22*72
$GPGSV,2,2,08,04,18,105,37,30,16,260,23,15,14,184,27,02,06,140,28*7F
$GPRMC,115341.000,A,4909.4902,N,02013.6385,E,2.38,93.51,040908,,*31
$GPGGA,115342.000,4909.4902,N,02013.6395,E,1,05,2.2,1272.6,M,41.8,M,,0000*66
$GPGSA,A,3,15,04,17,12,09,,,,,,,,3.7,2.2,2.9*31
$GPGSV,2,1,08,09,86,193,34,12,61,267,26,17,33,051,34,14,20,320,22*79
$GPGSV,2,2,08,04,18,105,37,30,16,260,23,15,14,184,26,02,06,140,28*7E
$GPRMC,115342.000,A,4909.4902,N,02013.6395,E,2.69,92.94,040908,,*3F
$GPGGA,115343.000,4909.4900,N,02013.6406,E,1,05,2.2,1272.4,M,41.8,M,,0000*6A
$GPGSA,A,3,15,04,17,12,09,,,,,,,,3.7,2.2,2.9*31
$GPGSV,2,1,08,09,86,193,34,12,61,267,26,17,33,051,34,14,20,320,22*79
$GPGSV,2,2,08,04,18,105,37,30,16,260,23,15,14,184,26,02,06,140,31*76
$GPRMC,115343.000,A,4909.4900,N,02013.6406,E,2.01,116.44,040908,,*0F
$GPGGA,115344.000,4909.4896,N,02013.6416,E,1,05,2.2,1272.1,M,41.8,M,,0000*67
$GPGSA,A,3,15,04,17,12,09,,,,,,,,3.7,2.2,2.9*31
$GPGSV,2,1,08,09,86,193,35,12,61,267,26,17,33,051,35,14,20,320,22*79
$GPGSV,2,2,08,04,18,105,37,30,16,260,23,15,14,184,28,02,06,140,30*79
$GPRMC,115344.000,A,4909.4896,N,02013.6416,E,2.49,126.85,040908,,*05
$GPGGA,115345.000,4909.4889,N,02013.6428,E,1,05,2.2,1272.1,M,41.8,M,,0000*65
$GPGSA,A,3,15,04,17,12,09,,,,,,,,3.7,2.2,2.9*31
$GPGSV,2,1,08,09,86,193,35,12,61,267,26,17,33,051,35,14,20,320,22*79
$GPGSV,2,2,08,04,18,105,37,30,16,260,23,15,14,184,30,02,06,140,33*73
$GPRMC,115345.000,A,4909.4889,N,02013.6428,E,3.48,145.38,040908,,*04
$GPGGA,115346.000,4909.4881,N,02013.6442,E,1,05,2.2,1272.3,M,41.8,M,,0000*60
$GPGSA,A,3,15,04,17,12,09,,,,,,,,3.7,2.2,2.9*31
$GPGSV,2,1,08,09,86,193,35,12,61,267,26,17,33,051,35,14,20,320,21*7A
$GPGSV,2,2,08,04,18,105,32,30,16,260,22,15,14,184,30,02,06,140,36*72
$GPRMC,115346.000,A,4909.4881,N,02013.6442,E,3.90,121.67,040908,,*0E
$GPGGA,115347.000,4909.4877,N,02013.6456,E,1,05,2.2,1272.8,M,41.8,M,,0000*66
$GPGSA,A,3,15,04,17,12,09,,,,,,,,3.7,2.2,2.9*31
$GPGSV,2,1,08,09,86,193,36,12,61,267,26,17,33,051,34,14,20,320,21*78
$GPGSV,2,2,08,04,18,105,33,30,16,260,22,15,14,184,29,02,06,140,35*78
$GPRMC,115347.000,A,4909.4877,N,02013.6456,E,2.53,114.65,040908,,*09
$GPGGA,115348.000,4909.4873,N,02013.6473,E,1,05,2.2,1273.5,M,41.8,M,,0000*66
$GPGSA,A,3,15,04,17,12,09,,,,,,,,3.7,2.2,2.9*31
$GPGSV,2,1,08,09,86,193,36,12,61,267,26,17,33,051,34,14,20,320,21*78
$GPGSV,2,2,08,04,18,105,33,30,16,260,22,15,14,184,29,02,06,140,36*7B
$GPRMC,115348.000,A,4909.4873,N,02013.6473,E,2.78,90.81,040908,,*3B
$GPGGA,115349.000,4909.4875,N,02013.6484,E,1,05,2.2,1273.4,M,41.8,M,,0000*68
$GPGSA,A,3,15,04,17,12,09,,,,,,,,3.7,2.2,2.9*31
$GPGSV,2,1,08,09,86,193,29,12,61,267,29,17,33,051,40,14,20,320,21*7A
$GPGSV,2,2,08,04,18,105,34,30,16,260,22,15,14,184,28,02,06,140,29*73
$GPRMC,115349.000,A,4909.4875,N,02013.6484,E,2.32,70.44,040908,,*3D
$GPGGA,115350.000,4909.4880,N,02013.6491,E,1,05,2.2,1273.2,M,41.8,M,,0000*68
$GPGSA,A,3,15,04,17,12,09,,,,,,,,3.7,2.2,2.9*31
$GPGSV,2,1,08,09,86,193,30,12,61,267,30,17,33,051,40,14,20,320,22*79
$GPGSV,2,2,08,04,18,105,34,30,16,260,22,15,14,184,26,02,06,140,25*71
$GPRMC,115350.000,A,4909.4880,N,02013.6491,E,2.79,44.11,040908,,*33
$GPGGA,115351.000,4909.4882,N,02013.6501,E,1,05,2.2,1273.3,M,41.8,M,,0000*62
$GPGSA,A,3,15,04,17,12,09,,,,,,,,3.7,2.2,2.9*31
$GPGSV,2,1,08,09,86,193,31,12,61,267,30,17,33,051,40,14,20,320,22*78
$GPGSV,2,2,08,04,18,105,33,30,16,260,22,15,14,184,24,02,06,140,26*77
$GPRMC,115351.000,A,4909.4882,N,02013.6501,E,1.80,82.21,040908,,*34
$GPGGA,115352.000,4909.4885,N,02013.6504,E,1,05,2.2,1272.6,M,41.8,M,,0000*67
$GPGSA,A,3,15,04,17,12,09,,,,,,,,3.7,2.2,2.9*31
$GPGSV,2,1,08,09,86,193,32,12,61,267,29,17,33,051,39,14,20,320,22*7D
$GPGSV,2,2,08,04,18,105,33,30,16,260,22,15,14,184,23,02,06,140,26*70
$GPRMC,115352.000,A,4909.4885,N,02013.6504,E,1.60,82.11,040908,,*38
$GPGGA,115353.000,4909.4885,N,02013.6513,E,1,05,2.2,1272.5,M,41.8,M,,0000*63
$GPGSA,A,3,15,04,17,12,09,,,,,,,,3.7,2.2,2.9*31
$GPGSV,2,1,08,09,86,193,32,12,61,267,25,17,33,051,33,14,20,320,22*7B
$GPGSV,2,2,08,04,18,105,33,30,16,260,21,15,14,184,23,02,06,140,33*77
$GPRMC,115353.000,A,4909.4885,N,02013.6513,E,2.00,94.20,040908,,*3F
$GPGGA,115354.000,4909.4885,N,02013.6523,E,1,05,2.2,1272.5,M,41.8,M,,0000*67
$GPGSA,A,3,15,04,17,12,09,,,,,,,,3.7,2.2,2.9*31
$GPGSV,2,1,08,09,86,193,33,12,61,267,22,17,33,051,34,14,20,320,22*7A
$GPGSV,2,2,08,04,18,105,33,30,16,260,21,15,14,184,24,02,06,140,37*74
$GPRMC,115354.000,A,4909.4885,N,02013.6523,E,2.03,91.72,040908,,*3A
$GPGGA,115355.000,4909.4883,N,02013.6535,E,1,05,2.2,1272.5,M,41.8,M,,0000*67
$GPGSA,A,3,15,04,17,12,09,,,,,,,,3.7,2.2,2.9*31
$GPGSV,2,1,08,09,86,193,33,12,61,267,23,17,33,051,36,14,20,320,21*7A
$GPGSV,2,2,08,04,18,105,32,30,16,260,21,15,14,184,24,02,06,140,37*75
$GPRMC,115355.000,A,4909.4883,N,02013.6535,E,2.09,111.28,040908,,*06
$GPGGA,115356.000,4909.4880,N,02013.6550,E,1,05,2.2,1272.8,M,41.8,M,,0000*69
$GPGSA,A,3,15,04,17,12,09,,,,,,,,3.7,2.2,2.9*31
$GPGSV,2,1,08,09,86,193,33,12,61,267,23,17,33,051,40,14,20,320,22*78
$GPGSV,2,2,08,04,18,105,32,30,16,260,21,15,14,184,24,02,06,140,30*72
$GPRMC,115356.000,A,4909.4880,N,02013.6550,E,2.64,103.74,040908,,*04
$GPGGA,115357.000,4909.4878,N,02013.6561,E,1,05,2.2,1272.7,M,41.8,M,,0000*62
$GPGSA,A,3,15,04,17,12,09,,,,,,,,3.6,2.2,2.9*30
$GPGSV,2,1,08,09,86,193,33,12,61,267,23,17,33,051,40,14,20,320,22*78
$GPGSV,2,2,08,04,18,105,32,30,16,260,21,15,14,184,27,02,06,140,36*77
$GPRMC,115357.000,A,4909.4878,N,02013.6561,E,2.35,105.34,040908,,*06
$GPGGA,115358.000,4909.4874,N,02013.6577,E,1,05,2.2,1273.2,M,41.8,M,,0000*62
$GPGSA,A,3,15,04,17,12,09,,,,,,,,3.6,2.2,2.9*30
$GPGSV,2,1,08,09,86,193,34,12,61,267,23,17,33,051,40,14,20,320,22*7F
$GPGSV,2,2,08,04,18,105,32,30,16,260,21,15,14,184,29,02,06,140,37*78
$GPRMC,115358.000,A,4909.4874,N,02013.6577,E,2.52,110.88,040908,,*00
$GPGGA,115359.000,4909.4872,N,02013.6585,E,1,05,2.2,1272.9,M,41.8,M,,0000*62
$GPGSA,A,3,15,04,17,12,09,,,,,,,,3.6,2.2,2.9*30
$GPGSV,2,1,08,09,86,193,33,12,61,267,23,17,33,051,40,14,20,320,21*7B
$GPGSV,2,2,08,04,18,105,32,30,16,260,21,15,14,184,31,02,06,140,36*70
$GPRMC,115359.000,A,4909.4872,N,02013.6585,E,2.21,123.33,040908,,*0E
$GPGGA,115400.000,4909.4868,N,02013.6593,E,1,05,2.2,1272.8,M,41.8,M,,0000*64
$GPGSA,A,3,15,04,17,12,09,,,,,,,,3.6,2.2,2.9*30
$GPGSV,2,1,08,09,86,193,33,12,61,267,23,17,33,051,34,14,20,320,21*78
$GPGSV,2,2,08,04,18,105,32,30,16,260,21,15,14,184,32,02,06,140,28*7C
$GPRMC,115400.000,A,4909.4868,N,02013.6593,E,1.96,132.98,040908,,*07
$GPGGA,115401.000,4909.4862,N,02013.6598,E,1,05,2.2,1272.4,M,41.8,M,,0000*68
$GPGSA,A,3,15,04,17,12,09,,,,,,,,3.6,2.2,2.9*30
$GPGSV,2,1,08,09,86,193,33,12,61,267,28,17,33,051,32,14,20,320,21*75
$GPGSV,2,2,08,04,18,105,33,30,16,260,21,15,14,184,33,02,06,140,29*7D
$GPRMC,115401.000,A,4909.4862,N,02013.6598,E,2.04,157.64,040908,,*0F
$GPGGA,115402.000,4909.4857,N,02013.6599,E,1,05,2.2,1271.9,M,41.8,M,,0000*62
$GPGSA,A,3,15,04,17,12,09,,,,,,,,3.6,2.2,2.9*30
$GPGSV,2,1,08,09,86,193,34,12,61,267,28,17,33,051,33,14,20,320,21*73
$GPGSV,2,2,08,04,18,105,36,30,16,260,21,15,14,184,33,02,06,140,29*78
$GPRMC,115402.000,A,4909.4857,N,02013.6599,E,2.03,181.27,040908,,*00
$GPGGA,115403.000,4909.4851,N,02013.6597,E,1,05,2.2,1271.2,M,41.8,M,,0000*60
$GPGSA,A,3,15,04,17,12,09,,,,,,,,3.6,2.2,2.9*30
$GPGSV,2,1,08,09,86,193,34,12,61,267,29,17,33,051,33,14,20,320,21*72
$GPGSV,2,2,08,04,18,105,38,30,16,260,21,15,14,184,33,02,06,140,30*7E
$GPRMC,115403.000,A,4909.4851,N,02013.6597,E,2.11,182.01,040908,,*0D
$GPGGA,115404.000,4909.4845,N,02013.6594,E,1,05,2.2,1270.5,M,41.8,M,,0000*67
$GPGSA,A,3,15,04,17,12,09,,,,,,,,3.6,2.2,2.9*30
$GPGSV,2,1,08,09,86,193,34,12,61,267,30,17,33,051,33,14,20,320,21*7A
$GPGSV,2,2,08,04,18,105,37,30,16,260,21,15,14,184,33,02,06,140,29*79
$GPRMC,115404.000,A,4909.4845,N,02013.6594,E,1.95,178.86,040908,,*09
$GPGGA,115405.000,4909.4838,N,02013.6594,E,1,05,2.2,1270.3,M,41.8,M,,0000*6A
$GPGSA,A,3,15,04,17,12,09,,,,,,,,3.6,2.2,2.9*30
$GPGSV,2,1,08,09,86,193,34,12,61,267,30,17,33,051,28,14,20,320,20*71
$GPGSV,2,2,08,04,18,105,32,30,16,260,21,15,14,184,33,02,06,140,24*71
$GPRMC,115405.000,A,4909.4838,N,02013.6594,E,2.20,183.27,040908,,*00
$GPGGA,115406.000,4909.4825,N,02013.6597,E,1,05,2.2,1270.9,M,41.8,M,,0000*6C
$GPGSA,A,3,15,04,17,12,09,,,,,,,,3.6,2.2,2.9*30
$GPGSV,2,1,08,09,86,193,34,12,61,267,31,17,33,051,29,14,20,320,20*71
$GPGSV,2,2,08,04,18,105,31,30,16,260,26,15,14,184,33,02,06,140,28*79
$GPRMC,115406.000,A,4909.4825,N,02013.6597,E,3.03,174.43,040908,,*06
$GPGGA,115407.000,4909.4816,N,02013.6596,E,1,05,2.2,1270.8,M,41.8,M,,0000*6D
$GPGSA,A,3,15,04,17,12,09,,,,,,,,3.6,2.2,2.9*30
$GPGSV,2,1,08,09,86,193,34,12,61,267,31,17,33,051,29,14,20,320,20*71
$GPGSV,2,2,08,04,18,105,31,30,16,260,29,15,14,184,30,02,06,140,28*75
$GPRMC,115407.000,A,4909.4816,N,02013.6596,E,3.02,183.75,040908,,*0A
$GPGGA,115408.000,4909.4808,N,02013.6592,E,1,05,2.2,1270.3,M,41.8,M,,0000*62
$GPGSA,A,3,15,04,17,12,09,,,,,,,,3.6,2.2,2.9*30
$GPGSV,2,1,08,09,86,193,34,12,61,267,31,17,33,051,28,14,20,320,20*70
$GPGSV,2,2,08,04,18,105,32,30,16,260,31,15,14,184,27,02,06,140,28*79
$GPRMC,115408.000,A,4909.4808,N,02013.6592,E,2.40,191.24,040908,,*0E
$GPGGA,115409.000,4909.4803,N,02013.6586,E,1,05,2.2,1269.7,M,41.8,M,,0000*61
$GPGSA,A,3,15,04,17,12,09,,,,,,,,3.6,2.2,2.9*30
$GPGSV,2,1,08,09,86,193,34,12,61,267,31,17,33,051,28,14,20,320,20*70
$GPGSV,2,2,08,04,18,105,32,30,16,260,36,15,14,184,30,02,06,140,30*71
$GPRMC,115409.000,A,4909.4803,N,02013.6586,E,1.99,214.32,040908,,*0F
$GPGGA,115410.000,4909.4798,N,02013.6578,E,1,05,2.2,1269.4,M,41.8,M,,0000*66
$GPGSA,A,3,15,04,17,12,09,,,,,,,,3.6,2.2,2.9*30
$GPGSV,2,1,08,09,86,193,34,12,61,267,32,17,33,051,28,14,20,320,20*73
$GPGSV,2,2,08,04,18,105,27,30,16,260,34,15,14,184,31,02,06,140,34*72
$GPRMC,115410.000,A,4909.4798,N,02013.6578,E,2.70,219.53,040908,,*05
$GPGGA,115411.000,4909.4794,N,02013.6569,E,1,05,2.2,1269.0,M,41.8,M,,0000*6F
$GPGSA,A,3,15,04,17,12,09,,,,,,,,3.6,2.2,2.9*30
$GPGSV,2,1,08,09,86,193,34,12,61,267,32,17,33,051,28,14,20,320,20*73
$GPGSV,2,2,08,04,18,105,26,30,16,260,34,15,14,184,30,02,06,140,33*75
$GPRMC,115411.000,A,4909.4794,N,02013.6569,E,1.76,219.76,040908,,*0A
$GPGGA,115412.000,4909.4791,N,02013.6562,E,1,05,2.2,1268.6,M,41.8,M,,0000*65
$GPGSA,A,3,15,04,17,12,09,,,,,,,,3.6,2.2,2.9*30
$GPGSV,2,1,08,09,86,193,34,12,61,267,34,17,33,051,28,14,20,320,20*75
$GPGSV,2,2,08,04,18,105,26,30,16,260,35,15,14,184,34,02,06,140,33*70
$GPRMC,115412.000,A,4909.4791,N,02013.6562,E,1.43,225.80,040908,,*07
$GPGGA,115413.000,4909.4786,N,02013.6555,E,1,05,2.2,1268.8,M,41.8,M,,0000*68
$GPGSA,A,3,15,04,17,12,09,,,,,,,,3.6,2.2,2.9*30
$GPGSV,2,1,08,09,86,193,34,12,61,267,36,17,33,051,28,14,20,320,20*77
$GPGSV,2,2,08,04,18,105,26,30,16,260,31,15,14,184,37,02,06,140,33*77
$GPRMC,115413.000,A,4909.4786,N,02013.6555,E,1.58,217.89,040908,,*06
$GPGGA,115414.000,4909.4782,N,02013.6549,E,1,05,2.2,1268.9,M,41.8,M,,0000*67
$GPGSA,A,3,15,04,17,12,09,,,,,,,,3.6,2.2,2.9*30
$GPGSV,2,1,08,09,86,193,31,12,61,267,36,17,33,051,28,14,20,320,20*72
$GPGSV,2,2,08,04,18,105,27,30,16,260,32,15,14,184,38,02,06,140,33*7A
$GPRMC,115414.000,A,4909.4782,N,02013.6549,E,1.10,242.18,040908,,*0C
$GPGGA,115415.000,4909.4779,N,02013.6538,E,1,05,2.2,1268.8,M,41.8,M,,0000*65
$GPGSA,A,3,15,04,17,12,09,,,,,,,,3.6,2.2,2.9*30
$GPGSV,2,1,08,09,86,193,30,12,61,267,37,17,33,051,28,14,20,320,20*72
$GPGSV,2,2,08,04,18,105,27,30,16,260,32,15,14,184,38,02,06,140,33*7A
$GPRMC,115415.000,A,4909.4779,N,02013.6538,E,2.16,257.76,040908,,*06
$GPGGA,115416.000,4909.4779,N,02013.6526,E,1,05,2.2,1268.4,M,41.8,M,,0000*65
$GPGSA,A,3,15,04,17,12,09,,,,,,,,3.6,2.2,2.9*30
$GPGSV,2,1,08,09,86,193,32,12,61,267,38,17,33,051,28,14,20,320,20*7F
$GPGSV,2,2,08,04,18,105,27,30,16,260,31,15,14,184,38,02,06,140,29*72
$GPRMC,115416.000,A,4909.4779,N,02013.6526,E,1.30,277.99,040908,,*0E
$GPGGA,115417.000,4909.4780,N,02013.6518,E,1,05,2.2,1268.1,M,41.8,M,,0000*6A
$GPGSA,A,3,15,04,17,12,09,,,,,,,,3.6,2.2,2.9*30
$GPGSV,2,1,08,09,86,193,33,12,61,267,38,17,33,051,28,14,20,320,24*7A
$GPGSV,2,2,08,04,18,105,27,30,16,260,29,15,14,184,32,02,06,140,29*71
$GPRMC,115417.000,A,4909.4780,N,02013.6518,E,1.31,285.75,040908,,*0A
$GPGGA,115418.000,4909.4781,N,02013.6508,E,1,05,2.2,1267.3,M,41.8,M,,0000*68
$GPGSA,A,3,15,04,17,12,09,,,,,,,,3.6,2.2,2.9*30
$GPGSV,2,1,08,09,86,193,33,12,61,267,39,17,33,051,28,14,20,320,27*78
$GPGSV,2,2,08,04,18,105,27,30,16,260,31,15,14,184,32,02,06,140,29*78
$GPRMC,115418.000,A,4909.4781,N,02013.6508,E,1.91,275.39,040908,,*08
$GPGGA,115419.000,4909.4781,N,02013.6497,E,1,05,2.2,1266.8,M,41.8,M,,0000*64
$GPGSA,A,3,15,04,17,12,09,,,,,,,,3.6,2.2,2.9*30
$GPGSV,2,1,08,09,86,193,33,12,61,267,39,17,33,051,28,14,20,320,27*78
$GPGSV,2,2,08,04,18,105,27,30,16,260,32,15,14,184,31,02,06,140,28*79
$GPRMC,115419.000,A,4909.4781,N,02013.6497,E,1.33,276.26,040908,,*0B
$GPGGA,115420.000,4909.4781,N,02013.6486,E,1,05,2.2,1266.3,M,41.8,M,,0000*65
$GPGSA,A,3,15,04,17,12,09,,,,,,,,3.6,2.2,2.9*30
$GPGSV,2,1,08,09,86,193,34,12,61,267,40,17,33,051,28,14,20,320,26*70
$GPGSV,2,2,08,04,18,105,27,30,16,260,32,15,14,184,31,02,06,140,28*79
$GPRMC,115420.000,A,4909.4781,N,02013.6486,E,1.62,263.39,040908,,*0F
$GPGGA,115421.000,4909.4781,N,02013.6475,E,1,05,2.2,1266.0,M,41.8,M,,0000*6B
$GPGSA,A,3,15,04,17,12,09,,,,,,,,3.6,2.2,2.9*30
$GPGSV,2,1,08,09,86,193,34,12,61,267,40,17,33,051,28,14,20,320,26*70
$GPGSV,2,2,08,04,18,105,27,30,16,260,32,15,14,184,31,02,06,140,28*79
$GPRMC,115421.000,A,4909.4781,N,02013.6475,E,1.74,292.58,040908,,*0C
$GPGGA,115422.000,4909.4784,N,02013.6464,E,1,05,2.2,1265.9,M,41.8,M,,0000*67
$GPGSA,A,3,15,04,17,12,09,,,,,,,,3.6,2.2,2.9*30
$GPGSV,2,1,08,09,86,193,34,12,61,267,41,17,33,051,28,14,20,320,26*71
$GPGSV,2,2,08,04,18,105,27,30,16,260,32,15,14,184,32,02,06,140,28*7A
$GPRMC,115422.000,A,4909.4784,N,02013.6464,E,2.54,311.98,040908,,*0D
$GPGGA,115423.000,4909.4789,N,02013.6452,E,1,05,2.2,1265.8,M,41.8,M,,0000*6F
$GPGSA,A,3,15,04,17,12,09,,,,,,,,3.6,2.2,2.9*30
$GPGSV,2,1,08,09,86,193,34,12,61,267,41,17,33,051,27,14,20,320,26*7E
$GPGSV,2,2,08,04,18,105,26,30,16,260,32,15,14,184,32,02,06,140,28*7B
$GPRMC,115423.000,A,4909.4789,N,02013.6452,E,3.17,309.71,040908,,*0C
$GPGGA,115424.000,4909.4793,N,02013.6440,E,1,05,2.2,1265.9,M,41.8,M,,0000*61
$GPGSA,A,3,15,04,17,12,09,,,,,,,,3.6,2.2,2.9*30
$GPGSV,2,1,08,09,86,193,35,12,61,267,41,17,33,051,27,14,20,320,23*7A
$GPGSV,2,2,08,04,18,105,26,30,16,260,33,15,14,184,31,02,06,140,27*76
$GPRMC,115424.000,A,4909.4793,N,02013.6440,E,2.15,328.79,040908,,*0B
$GPGGA,115425.000,4909.4795,N,02013.6432,E,1,05,2.2,1266.0,M,41.8,M,,0000*69
$GPGSA,A,3,15,04,17,12,09,,,,,,,,3.6,2.2,2.9*30
$GPGSV,2,1,08,09,86,193,35,12,61,267,41,17,33,051,27,14,20,320,19*73
$GPGSV,2,2,08,04,18,105,26,30,16,260,33,15,14,184,28,02,06,140,25*7C
$GPRMC,115425.000,A,4909.4795,N,02013.6432,E,1.51,315.13,040908,,*08
$GPGGA,115426.000,4909.4793,N,02013.6422,E,1,05,2.2,1266.3,M,41.8,M,,0000*6E
$GPGSA,A,3,15,04,17,12,09,,,,,,,,3.6,2.2,2.9*30
$GPGSV,2,1,08,09,86,193,35,12,61,267,41,17,33,051,25,14,20,320,22*79
$GPGSV,2,2,08,04,18,105,26,30,16,260,33,15,14,184,29,02,06,140,26*7E
$GPRMC,115426.000,A,4909.4793,N,02013.6422,E,1.69,249.49,040908,,*00
$GPGGA,115427.000,4909.4790,N,02013.6411,E,1,05,2.2,1267.0,M,41.8,M,,0000*6E
$GPGSA,A,3,15,04,17,12,09,,,,,,,,3.6,2.2,2.9*30
$GPGSV,2,1,08,09,86,193,35,12,61,267,41,17,33,051,22,14,20,320,26*7A
$GPGSV,2,2,08,04,18,105,26,30,16,260,33,15,14,184,29,02,06,140,25*7D
$GPRMC,115427.000,A,4909.4790,N,02013.6411,E,1.52,286.14,040908,,*01
$GPGGA,115428.000,4909.4789,N,02013.6400,E,1,05,2.2,1267.2,M,41.8,M,,0000*6B
$GPGSA,A,3,15,04,17,12,09,,,,,,,,3.6,2.2,2.9*30
$GPGSV,2,1,08,09,85,181,35,12,62,268,41,17,32,051,23,14,21,319,27*7C
$GPGSV,2,2,08,04,18,104,26,30,17,261,33,15,13,184,29,02,07,139,25*74
$GPRMC,115428.000,A,4909.4789,N,02013.6400,E,1.61,253.12,040908,,*08
$GPGGA,115429.000,4909.4789,N,02013.6388,E,1,05,2.2,1267.2,M,41.8,M,,0000*6D
$GPGSA,A,3,15,04,17,12,09,,,,,,,,3.6,2.2,2.9*30
$GPGSV,2,1,08,09,85,181,35,12,62,268,41,17,32,051,22,14,21,319,28*72
$GPGSV,2,2,08,04,18,104,25,30,17,261,33,15,13,184,29,02,07,139,25*77
$GPRMC,115429.000,A,4909.4789,N,02013.6388,E,2.72,283.04,040908,,*05
$GPGGA,115430.000,4909.4787,N,02013.6373,E,1,05,2.2,1268.0,M,41.8,M,,0000*62
$GPGSA,A,3,15,04,17,12,09,,,,,,,,3.6,2.2,2.9*30
$GPGSV,2,1,08,09,85,181,35,12,62,268,42,17,32,051,23,14,21,319,25*7D
$GPGSV,2,2,08,04,18,104,25,30,17,261,33,15,13,184,29,02,07,139,25*77
$GPRMC,115430.000,A,4909.4787,N,02013.6373,E,3.00,273.47,040908,,*0B
$GPGGA,115431.000,4909.4785,N,02013.6358,E,1,05,2.2,1268.5,M,41.8,M,,0000*6D
$GPGSA,A,3,15,04,17,12,09,,,,,,,,3.6,2.2,2.9*30
$GPGSV,2,1,08,09,85,181,35,12,62,268,42,17,32,051,23,14,21,319,22*7A
$GPGSV,2,2,08,04,18,104,25,30,17,261,33,15,13,184,29,02,07,139,25*77
$GPRMC,115431.000,A,4909.4785,N,02013.6358,E,2.51,256.12,040908,,*03
$GPGGA,115432.000,4909.4783,N,02013.6347,E,1,05,2.2,1268.5,M,41.8,M,,0000*66
$GPGSA,A,3,15,04,17,12,09,,,,,,,,3.6,2.2,2.8*31
$GPGSV,2,1,08,09,85,181,35,12,62,268,42,17,32,051,23,14,21,319,21*79
$GPGSV,2,2,08,04,18,104,25,30,17,261,33,15,13,184,29,02,07,139,25*77
$GPRMC,115432.000,A,4909.4783,N,02013.6347,E,1.61,253.59,040908,,*02
$GPGGA,115433.000,4909.4782,N,02013.6336,E,1,05,2.2,1269.0,M,41.8,M,,0000*64
$GPGSA,A,3,15,04,17,12,09,,,,,,,,3.6,2.2,2.8*31
$GPGSV,2,1,08,09,85,181,35,12,62,268,42,17,32,051,23,14,21,319,23*7B
$GPGSV,2,2,08,04,18,104,24,30,17,261,33,15,13,184,29,02,07,139,24*77
$GPRMC,115433.000,A,4909.4782,N,02013.6336,E,2.42,299.48,040908,,*00
$GPGGA,115434.000,4909.4785,N,02013.6324,E,1,05,2.2,1269.0,M,41.8,M,,0000*67
$GPGSA,A,3,15,04,17,12,09,,,,,,,,3.6,2.2,2.8*31
$GPGSV,2,1,08,09,85,181,36,12,62,268,42,17,32,051,23,14,21,319,23*78
$GPGSV,2,2,08,04,18,104,24,30,17,261,35,15,13,184,32,02,07,139,25*7A
$GPRMC,115434.000,A,4909.4785,N,02013.6324,E,2.46,303.55,040908,,*09
$GPGGA,115435.000,4909.4784,N,02013.6311,E,1,05,2.2,1269.4,M,41.8,M,,0000*65
$GPGSA,A,3,15,04,17,12,09,,,,,,,,3.6,2.2,2.8*31
$GPGSV,2,1,08,09,85,181,36,12,62,268,42,17,32,051,23,14,21,319,24*7F
$GPGSV,2,2,08,04,18,104,24,30,17,261,33,15,13,184,32,02,07,139,24*7D
$GPRMC,115435.000,A,4909.4784,N,02013.6311,E,1.75,260.17,040908,,*0E
$GPGGA,115436.000,4909.4778,N,02013.6299,E,1,05,2.2,1270.3,M,41.8,M,,0000*6B
$GPGSA,A,3,15,04,17,12,09,,,,,,,,3.6,2.2,2.8*31
$GPGSV,2,1,08,09,85,181,36,12,62,268,42,17,32,051,23,14,21,319,24*7F
$GPGSV,2,2,08,04,18,104,24,30,17,261,33,15,13,184,31,02,07,139,24*7E
$GPRMC,115436.000,A,4909.4778,N,02013.6299,E,2.56,252.70,040908,,*0D
$GPGGA,115437.000,4909.4776,N,02013.6287,E,1,04,2.9,1271.2,M,41.8,M,,0000*61
$GPGSA,A,3,15,17,12,09,,,,,,,,,4.2,2.9,3.0*34
$GPGSV,2,1,08,09,85,181,36,12,62,268,42,17,32,051,22,14,21,319,24*7E
$GPGSV,2,2,08,04,18,104,22,30,17,261,34,15,13,184,30,02,07,139,24*7E
$GPRMC,115437.000,A,4909.4776,N,02013.6287,E,2.27,291.09,040908,,*0A
$GPGGA,115438.000,4909.4775,N,02013.6275,E,1,04,2.9,1271.7,M,41.8,M,,0000*65
$GPGSA,A,3,15,17,12,09,,,,,,,,,4.2,2.9,3.0*34
$GPGSV,2,1,08,09,85,181,36,12,62,268,42,17,32,051,22,14,21,319,24*7E
$GPGSV,2,2,08,04,18,104,21,30,17,261,34,15,13,184,30,02,07,139,24*7D
$GPRMC,115438.000,A,4909.4775,N,02013.6275,E,2.36,271.09,040908,,*05
$GPGGA,115439.000,4909.4772,N,02013.6264,E,1,05,2.2,1272.3,M,41.8,M,,0000*6E
$GPGSA,A,3,15,04,17,12,09,,,,,,,,3.6,2.2,2.8*31
$GPGSV,2,1,08,09,85,181,36,12,62,268,42,17,32,051,22,14,21,319,24*7E
$GPGSV,2,2,08,04,18,104,23,30,17,261,34,15,13,184,30,02,07,139,24*7F
$GPRMC,115439.000,A,4909.4772,N,02013.6264,E,1.83,276.60,040908,,*06
$GPGGA,115440.000,4909.4774,N,02013.6253,E,1,03,3.6,1271.9,M,41.8,M,,0000*68
$GPGSA,A,2,15,12,09,,,,,,,,,,3.7,3.6,1.0*3D
$GPGSV,2,1,08,09,85,181,36,12,62,268,42,17,32,051,22,14,21,319,24*7E
$GPGSV,2,2,08,04,18,104,21,30,17,261,34,15,13,184,33,02,07,139,24*7E
$GPRMC,115440.000,A,4909.4774,N,02013.6253,E,2.32,276.40,040908,,*01
$GPGGA,115441.000,4909.4773,N,02013.6241,E,1,03,3.6,1271.6,M,41.8,M,,0000*62
$GPGSA,A,2,15,12,09,,,,,,,,,,3.7,3.6,1.0*3D
$GPGSV,2,1,08,09,85,181,36,12,62,268,42,17,32,051,19,14,21,319,23*71
$GPGSV,2,2,08,04,18,104,14,30,17,261,34,15,13,184,32,02,07,139,24*79
$GPRMC,115441.000,A,4909.4773,N,02013.6241,E,2.54,249.79,040908,,*02
$GPGGA,115442.000,4909.4776,N,02013.6231,E,1,04,2.9,1270.9,M,41.8,M,,0000*64
$GPGSA,A,3,15,17,12,09,,,,,,,,,4.2,2.9,3.0*34
$GPGSV,2,1,08,09,85,181,36,12,62,268,42,17,32,051,21,14,21,319,24*7D
$GPGSV,2,2,08,04,18,104,21,30,17,261,34,15,13,184,32,02,07,139,24*7F
$GPRMC,115442.000,A,4909.4776,N,02013.6231,E,2.27,295.33,040908,,*08
$GPGGA,115443.000,4909.4778,N,02013.6220,E,1,03,3.6,1270.5,M,41.8,M,,0000*6E
$GPGSA,A,2,15,12,09,,,,,,,,,,3.7,3.6,1.0*3D
$GPGSV,2,1,08,09,85,181,36,12,62,268,42,17,32,051,21,14,21,319,24*7D
$GPGSV,2,2,08,04,18,104,19,30,17,261,34,15,13,184,32,02,07,139,24*74
$GPRMC,115443.000,A,4909.4778,N,02013.6220,E,2.16,271.80,040908,,*07
$GPGGA,115444.000,4909.4779,N,02013.6210,E,1,03,3.6,1270.1,M,41.8,M,,0000*6F
$GPGSA,A,2,15,12,09,,,,,,,,,,3.7,3.6,1.0*3D
$GPGSV,2,1,08,09,85,181,37,12,62,268,42,17,32,051,22,14,21,319,23*78
$GPGSV,2,2,08,04,18,104,22,30,17,261,33,15,13,184,33,02,07,139,24*7A
$GPRMC,115444.000,A,4909.4779,N,02013.6210,E,2.26,272.07,040908,,*0D
$GPGGA,115445.000,4909.4778,N,02013.6199,E,1,04,2.9,1270.0,M,41.8,M,,0000*65
$GPGSA,A,3,15,17,12,09,,,,,,,,,4.2,2.9,3.0*34
$GPGSV,2,1,08,09,85,181,37,12,62,268,42,17,32,051,21,14,21,319,23*7B
$GPGSV,2,2,08,04,18,104,21,30,17,261,33,15,13,184,33,02,07,139,24*79
$GPRMC,115445.000,A,4909.4778,N,02013.6199,E,1.35,286.66,040908,,*02
$GPGGA,115446.000,4909.4779,N,02013.6191,E,1,03,3.6,1269.6,M,41.8,M,,0000*68
$GPGSA,A,2,15,12,09,,,,,,,,,,3.7,3.6,1.0*3D
$GPGSV,2,1,08,09,85,181,37,12,62,268,42,17,32,051,21,14,21,319,23*7B
$GPGSV,2,2,08,04,18,104,20,30,17,261,33,15,13,184,36,02,07,139,26*7F
$GPRMC,115446.000,A,4909.4779,N,02013.6191,E,1.72,284.90,040908,,*00
$GPGGA,115447.000,4909.4780,N,02013.6181,E,1,03,3.6,1269.3,M,41.8,M,,0000*6B
$GPGSA,A,2,15,12,09,,,,,,,,,,3.7,3.6,1.0*3D
$GPGSV,2,1,08,09,85,181,37,12,62,268,42,17,32,051,23,14,21,319,21*7B
$GPGSV,2,2,08,04,18,104,16,30,17,261,33,15,13,184,37,02,07,139,27*7A
$GPRMC,115447.000,A,4909.4780,N,02013.6181,E,2.20,274.54,040908,,*05
$GPGGA,115448.000,4909.4795,N,02013.6179,E,1,04,2.9,1266.4,M,41.8,M,,0000*66
$GPGSA,A,3,15,17,12,09,,,,,,,,,4.2,2.9,3.0*34
$GPGSV,2,1,08,09,85,181,37,12,62,268,42,17,32,051,19,14,21,319,19*79
$GPGSV,2,2,08,04,18,104,,30,17,261,33,15,13,184,36,02,07,139,26*7D
$GPRMC,115448.000,A,4909.4795,N,02013.6179,E,2.10,304.44,040908,,*0D
$GPGGA,115449.000,4909.4798,N,02013.6170,E,1,03,3.6,1265.9,M,41.8,M,,0000*64
$GPGSA,A,2,15,12,09,,,,,,,,,,3.7,3.6,1.0*3D
$GPGSV,2,1,08,09,85,181,37,12,62,268,42,17,32,051,20,14,21,319,21*78
$GPGSV,2,2,08,04,18,104,22,30,17,261,33,15,13,184,31,02,07,139,26*7A
$GPRMC,115449.000,A,4909.4798,N,02013.6170,E,2.04,295.84,040908,,*08
$GPGGA,115450.000,4909.4800,N,02013.6160,E,1,03,3.6,1265.4,M,41.8,M,,0000*6E
$GPGSA,A,2,15,12,09,,,,,,,,,,3.7,3.6,1.0*3D
$GPGSV,2,1,08,09,85,181,37,12,62,268,42,17,32,051,21,14,21,319,22*7A
$GPGSV,2,2,08,04,18,104,19,30,17,261,33,15,13,184,29,02,07,139,26*7B
$GPRMC,115450.000,A,4909.4800,N,02013.6160,E,2.28,288.99,040908,,*01
$GPGGA,115451.000,4909.4806,N,02013.6152,E,1,03,3.6,1264.5,M,41.8,M,,0000*68
$GPGSA,A,2,15,12,09,,,,,,,,,,3.7,3.6,1.0*3D
$GPGSV,2,1,08,09,85,181,36,12,62,268,42,17,32,051,20,14,21,319,21*79
$GPGSV,2,2,08,04,18,104,21,30,17,261,33,15,13,184,30,02,07,139,26*78
$GPRMC,115451.000,A,4909.4806,N,02013.6152,E,2.20,313.06,040908,,*0A
$GPGGA,115452.000,4909.4811,N,02013.6144,E,1,03,3.6,1263.7,M,41.8,M,,0000*6F
$GPGSA,A,2,15,12,09,,,,,,,,,,3.7,3.6,1.0*3D
$GPGSV,2,1,08,09,85,181,37,12,62,268,42,17,32,051,17,14,21,319,21*7C
$GPGSV,2,2,08,04,18,104,,30,17,261,33,15,13,184,31,02,07,139,26*7A
$GPRMC,115452.000,A,4909.4811,N,02013.6144,E,1.93,314.97,040908,,*0C
$GPGGA,115453.000,4909.4815,N,02013.6137,E,1,03,3.6,1262.9,M,41.8,M,,0000*61
$GPGSA,A,2,15,12,09,,,,,,,,,,3.7,3.6,1.0*3D
$GPGSV,2,1,08,09,85,181,37,12,62,268,42,17,32,051,17,14,21,319,21*7C
$GPGSV,2,2,08,04,18,104,17,30,17,261,33,15,13,184,34,02,07,139,26*79
$GPRMC,115453.000,A,4909.4815,N,02013.6137,E,1.54,319.79,040908,,*0B
$GPGGA,115454.000,4909.4820,N,02013.6131,E,1,03,3.6,1261.8,M,41.8,M,,0000*64
$GPGSA,A,2,15,12,09,,,,,,,,,,3.7,3.6,1.0*3D
$GPGSV,2,1,08,09,85,181,37,12,62,268,42,17,32,051,18,14,21,319,21*73
$GPGSV,2,2,08,04,18,104,22,30,17,261,33,15,13,184,33,02,07,139,26*78
$GPRMC,115454.000,A,4909.4820,N,02013.6131,E,1.68,327.92,040908,,*0B
$GPGGA,115455.000,4909.4825,N,02013.6125,E,1,03,3.6,1260.8,M,41.8,M,,0000*64
$GPGSA,A,2,15,12,09,,,,,,,,,,3.7,3.6,1.0*3D
$GPGSV,2,1,08,09,85,181,37,12,62,268,42,17,32,051,18,14,21,319,21*73
$GPGSV,2,2,08,04,18,104,22,30,17,261,33,15,13,184,33,02,07,139,26*78
$GPRMC,115455.000,A,4909.4825,N,02013.6125,E,1.74,311.96,040908,,*06
$GPGGA,115456.000,4909.4828,N,02013.6117,E,1,03,3.6,1259.9,M,41.8,M,,0000*60
$GPGSA,A,2,15,12,09,,,,,,,,,,3.7,3.6,1.0*3D
$GPGSV,2,1,08,09,85,181,37,12,62,268,42,17,32,051,18,14,21,319,21*73
$GPGSV,2,2,08,04,18,104,17,30,17,261,33,15,13,184,33,02,07,139,26*7E
$GPRMC,115456.000,A,4909.4828,N,02013.6117,E,1.74,307.49,040908,,*0C
$GPGGA,115457.000,4909.4832,N,02013.6109,E,1,03,3.6,1258.9,M,41.8,M,,0000*64
$GPGSA,A,2,15,12,09,,,,,,,,,,3.7,3.6,1.0*3D
$GPGSV,2,1,08,09,85,181,37,12,62,268,42,17,32,051,18,14,21,319,21*73
$GPGSV,2,2,08,04,18,104,18,30,17,261,33,15,13,184,33,02,07,139,26*71
$GPRMC,115457.000,A,4909.4832,N,02013.6109,E,1.76,306.47,040908,,*04
$GPGGA,115458.000,4909.4835,N,02013.6102,E,1,03,3.6,1258.0,M,41.8,M,,0000*6E
$GPGSA,A,2,15,12,09,,,,,,,,,,3.7,3.6,1.0*3D
$GPGSV,2,1,08,09,85,181,37,12,62,268,42,17,32,051,19,14,21,319,21*72
$GPGSV,2,2,08,04,18,104,20,30,17,261,34,15,13,184,33,02,07,139,31*7B
$GPRMC,115458.000,A,4909.4835,N,02013.6102,E,1.43,312.97,040908,,*09
$GPGGA,115459.000,4909.4839,N,02013.6095,E,1,03,3.6,1256.8,M,41.8,M,,0000*6A
$GPGSA,A,2,15,12,09,,,,,,,,,,3.7,3.6,1.0*3D
$GPGSV,2,1,08,09,85,181,37,12,62,268,41,17,32,051,19,14,21,319,20*70
$GPGSV,2,2,08,04,18,104,18,30,17,261,34,15,13,184,33,02,07,139,32*73
$GPRMC,115459.000,A,4909.4839,N,02013.6095,E,1.50,315.73,040908,,*04
$GPGGA,115500.000,4909.4842,N,02013.6087,E,1,03,3.6,1255.8,M,41.8,M,,0000*6B
$GPGSA,A,2,15,12,09,,,,,,,,,,3.7,3.6,1.0*3D
$GPGSV,2,1,08,09,85,181,37,12,62,268,41,17,32,051,19,14,21,319,20*70
$GPGSV,2,2,08,04,18,104,24,30,17,261,38,15,13,184,33,02,07,139,31*73
$GPRMC,115500.000,A,4909.4842,N,02013.6087,E,1.78,289.59,040908,,*00
$GPGGA,115501.000,4909.4841,N,02013.6071,E,1,04,3.6,1255.7,M,41.8,M,,0000*68
$GPGSA,A,3,15,12,09,04,,,,,,,,,5.6,3.6,4.3*39
$GPGSV,2,1,08,09,85,181,37,12,62,268,41,17,32,051,10,14,21,319,20*79
$GPGSV,2,2,08,04,18,104,23,30,17,261,39,15,13,184,33,02,07,139,31*75
$GPRMC,115501.000,A,4909.4841,N,02013.6071,E,1.73,292.21,040908,,*05
$GPGGA,115502.000,4909.4835,N,02013.6050,E,1,05,2.2,1256.8,M,41.8,M,,0000*63
$GPGSA,A,3,15,17,12,09,04,,,,,,,,3.6,2.2,2.8*31
$GPGSV,2,1,08,09,85,181,37,12,62,268,41,17,32,051,17,14,21,319,20*7E
$GPGSV,2,2,08,04,18,104,23,30,17,261,39,15,13,184,33,02,07,139,31*75
$GPRMC,115502.000,A,4909.4835,N,02013.6050,E,2.40,286.16,040908,,*04
$GPGGA,115503.000,4909.4830,N,02013.6031,E,1,05,2.2,1257.6,M,41.8,M,,0000*6F
$GPGSA,A,3,15,17,12,09,04,,,,,,,,3.6,2.2,2.8*31
$GPGSV,2,1,08,09,85,181,37,12,62,268,42,17,32,051,20,14,21,319,20*79
$GPGSV,2,2,08,04,18,104,24,30,17,261,39,15,13,184,25,02,07,139,30*74
$GPRMC,115503.000,A,4909.4830,N,02013.6031,E,1.98,266.59,040908,,*04
$GPGGA,115504.000,4909.4825,N,02013.6015,E,1,05,2.2,1258.0,M,41.8,M,,0000*63
$GPGSA,A,3,15,17,12,09,04,,,,,,,,3.6,2.2,2.8*31
$GPGSV,2,1,08,09,85,181,37,12,62,268,42,17,32,051,20,14,21,319,20*79
$GPGSV,2,2,08,04,18,104,24,30,17,261,38,15,13,184,26,02,07,139,28*7F
$GPRMC,115504.000,A,4909.4825,N,02013.6015,E,2.29,257.90,040908,,*0F
$GPGGA,115505.000,4909.4820,N,02013.6000,E,1,05,2.2,1258.2,M,41.8,M,,0000*61
$GPGSA,A,3,15,17,12,09,04,,,,,,,,3.6,2.2,2.8*31
$GPGSV,2,1,08,09,85,181,37,12,62,268,41,17,32,051,20,14,21,319,20*7A
$GPGSV,2,2,08,04,18,104,24,30,17,261,38,15,13,184,26,02,07,139,28*7F
$GPRMC,115505.000,A,4909.4820,N,02013.6000,E,1.43,259.60,040908,,*01
$GPGGA,115506.000,4909.4812,N,02013.5984,E,1,05,2.2,1258.9,M,41.8,M,,0000*6E
$GPGSA,A,3,15,17,12,09,04,,,,,,,,3.6,2.2,2.8*31
$GPGSV,2,1,08,09,85,181,37,12,62,268,41,17,32,051,20,14,21,319,20*7A
$GPGSV,2,2,08,04,18,104,24,30,17,261,38,15,13,184,26,02,07,139,27*70
$GPRMC,115506.000,A,4909.4812,N,02013.5984,E,2.62,231.66,040908,,*0D
$GPGGA,115507.000,4909.4808,N,02013.5971,E,1,04,3.6,1258.4,M,41.8,M,,0000*67
$GPGSA,A,3,15,12,09,04,,,,,,,,,5.6,3.6,4.3*39
$GPGSV,2,1,08,09,85,181,37,12,62,268,41,17,32,051,19,14,21,319,20*70
$GPGSV,2,2,08,04,18,104,24,30,17,261,38,15,13,184,33,02,07,139,27*74
$GPRMC,115507.000,A,4909.4808,N,02013.5971,E,2.46,244.77,040908,,*09
$GPGGA,115508.000,4909.4808,N,02013.5959,E,1,04,3.6,1258.0,M,41.8,M,,0000*66
$GPGSA,A,3,15,12,09,04,,,,,,,,,5.6,3.6,4.3*39
$GPGSV,2,1,08,09,85,181,37,12,62,268,41,17,32,051,12,14,21,319,20*7B
$GPGSV,2,2,08,04,18,104,25,30,17,261,38,15,13,184,34,02,07,139,27*72
$GPRMC,115508.000,A,4909.4808,N,02013.5959,E,1.66,292.26,040908,,*02
$GPGGA,115509.000,4909.4807,N,02013.5947,E,1,04,3.6,1257.8,M,41.8,M,,0000*60
$GPGSA,A,3,15,12,09,04,,,,,,,,,5.6,3.6,4.3*39
$GPGSV,2,1,08,09,85,181,37,12,62,268,41,17,32,051,10,14,21,319,20*79
$GPGSV,2,2,08,04,18,104,24,30,17,261,39,15,13,184,34,02,07,139,26*73
$GPRMC,115509.000,A,4909.4807,N,02013.5947,E,1.16,285.75,040908,,*04
$GPGGA,115510.000,4909.4804,N,02013.5934,E,1,04,3.6,1257.9,M,41.8,M,,0000*6E
$GPGSA,A,3,15,12,09,04,,,,,,,,,5.6,3.6,4.3*39
$GPGSV,2,1,08,09,85,181,37,12,62,268,41,17,32,051,08,14,21,319,20*70
$GPGSV,2,2,08,04,18,104,24,30,17,261,39,15,13,184,34,02,07,139,26*73
$GPRMC,115510.000,A,4909.4804,N,02013.5934,E,1.61,274.70,040908,,*00
$GPGGA,115511.000,4909.4800,N,02013.5921,E,1,04,3.6,1257.9,M,41.8,M,,0000*6F
$GPGSA,A,3,15,12,09,04,,,,,,,,,5.6,3.6,4.3*39
$GPGSV,2,1,08,09,85,181,37,12,62,268,41,17,32,051,,14,21,319,20*78
$GPGSV,2,2,08,04,18,104,24,30,17,261,39,15,13,184,34,02,07,139,26*73
$GPRMC,115511.000,A,4909.4800,N,02013.5921,E,1.83,260.29,040908,,*04
$GPGGA,115512.000,4909.4795,N,02013.5909,E,1,05,2.2,1258.1,M,41.8,M,,0000*66
$GPGSA,A,3,15,17,12,09,04,,,,,,,,3.6,2.2,2.8*31
$GPGSV,2,1,08,09,85,181,37,12,62,268,41,17,32,051,21,14,21,319,20*7B
$GPGSV,2,2,08,04,18,104,23,30,17,261,39,15,13,184,34,02,07,139,26*74
$GPRMC,115512.000,A,4909.4795,N,02013.5909,E,0.92,288.85,040908,,*0F
$GPGGA,115513.000,4909.4793,N,02013.5899,E,1,04,3.6,1257.7,M,41.8,M,,0000*64
$GPGSA,A,3,15,12,09,04,,,,,,,,,5.6,3.6,4.3*39
$GPGSV,2,1,08,09,85,181,37,12,62,268,41,17,32,051,19,14,21,319,20*70
$GPGSV,2,2,08,04,18,104,23,30,17,261,39,15,13,184,34,02,07,139,26*74
$GPRMC,115513.000,A,4909.4793,N,02013.5899,E,0.97,278.59,040908,,*0B
$GPGGA,115514.000,4909.4791,N,02013.5890,E,1,04,3.6,1257.2,M,41.8,M,,0000*6D
$GPGSA,A,3,15,12,09,04,,,,,,,,,5.6,3.6,4.3*39
$GPGSV,2,1,08,09,85,181,37,12,62,268,41,17,32,051,21,14,21,319,20*7B
$GPGSV,2,2,08,04,18,104,23,30,17,261,39,15,13,184,34,02,07,139,27*75
$GPRMC,115514.000,A,4909.4791,N,02013.5890,E,1.56,263.62,040908,,*09
$GPGGA,115515.000,4909.4786,N,02013.5878,E,1,05,2.2,1257.1,M,41.8,M,,0000*6B
$GPGSA,A,3,15,17,12,09,04,,,,,,,,3.6,2.2,2.8*31
$GPGSV,2,1,08,09,85,181,38,12,62,268,41,17,32,051,23,14,21,319,20*76
$GPGSV,2,2,08,04,18,104,23,30,17,261,39,15,13,184,34,02,07,139,27*75
$GPRMC,115515.000,A,4909.4786,N,02013.5878,E,0.92,265.28,040908,,*09
$GPGGA,115516.000,4909.4782,N,02013.5868,E,1,04,3.6,1256.9,M,41.8,M,,0000*60
$GPGSA,A,3,15,12,09,04,,,,,,,,,5.6,3.6,4.3*39
$GPGSV,2,1,08,09,85,181,38,12,62,268,41,17,32,051,21,14,21,319,20*74
$GPGSV,2,2,08,04,18,104,23,30,17,261,39,15,13,184,32,02,07,139,28*7C
$GPRMC,115516.000,A,4909.4782,N,02013.5868,E,1.56,258.11,040908,,*02
$GPGGA,115517.000,4909.4777,N,02013.5855,E,1,04,3.6,1257.0,M,41.8,M,,0000*6D
$GPGSA,A,3,15,12,09,04,,,,,,,,,5.6,3.6,4.3*39
$GPGSV,2,1,08,09,85,181,38,12,62,268,41,17,32,051,21,14,21,319,20*74
$GPGSV,2,2,08,04,18,104,23,30,17,261,39,15,13,184,30,02,07,139,34*73
$GPRMC,115517.000,A,4909.4777,N,02013.5855,E,1.97,261.66,040908,,*00
$GPGGA,115518.000,4909.4757,N,02013.5838,E,1,05,2.2,1259.9,M,41.8,M,,0000*68
$GPGSA,A,3,15,17,12,09,04,,,,,,,,3.5,2.2,2.8*32
$GPGSV,2,1,08,09,85,181,38,12,62,268,41,17,32,051,25,14,21,319,19*7A
$GPGSV,2,2,08,04,18,104,23,30,17,261,39,15,13,184,32,02,07,139,33*76
$GPRMC,115518.000,A,4909.4757,N,02013.5838,E,1.93,247.55,040908,,*06
$GPGGA,115519.000,4909.4743,N,02013.5825,E,1,05,2.2,1261.5,M,41.8,M,,0000*67
$GPGSA,A,3,15,17,12,09,04,,,,,,,,3.5,2.2,2.8*32
$GPGSV,2,1,08,09,85,181,38,12,62,268,41,17,32,051,24,14,21,319,19*7B
$GPGSV,2,2,08,04,18,104,23,30,17,261,39,15,13,184,33,02,07,139,27*72
$GPRMC,115519.000,A,4909.4743,N,02013.5825,E,2.03,235.62,040908,,*05
$GPGGA,115520.000,4909.4735,N,02013.5813,E,1,05,2.2,1262.1,M,41.8,M,,0000*6E
$GPGSA,A,3,15,17,12,09,04,,,,,,,,3.5,2.2,2.8*32
$GPGSV,2,1,08,09,85,181,38,12,62,268,41,17,32,051,23,14,21,319,19*7C
$GPGSV,2,2,08,04,18,104,23,30,17,261,39,15,13,184,33,02,07,139,25*70
$GPRMC,115520.000,A,4909.4735,N,02013.5813,E,1.53,234.94,040908,,*05
$GPGGA,115521.000,4909.4729,N,02013.5804,E,1,05,2.2,1262.1,M,41.8,M,,0000*64
$GPGSA,A,3,15,17,12,09,04,,,,,,,,3.5,2.2,2.8*32
$GPGSV,2,1,08,09,85,181,38,12,62,268,40,17,32,051,23,14,21,319,19*7D
$GPGSV,2,2,08,04,18,104,23,30,17,261,39,15,13,184,27,02,07,139,30*71
$GPRMC,115521.000,A,4909.4729,N,02013.5804,E,1.51,223.73,040908,,*02
$GPGGA,115522.000,4909.4726,N,02013.5794,E,1,05,2.2,1261.8,M,41.8,M,,0000*64
$GPGSA,A,3,15,17,12,09,04,,,,,,,,3.5,2.2,2.8*32
$GPGSV,2,1,08,09,85,181,38,12,62,268,40,17,32,051,23,14,21,319,19*7D
$GPGSV,2,2,08,04,18,104,23,30,17,261,33,15,13,184,26,02,07,139,32*78
$GPRMC,115522.000,A,4909.4726,N,02013.5794,E,1.39,237.14,040908,,*02
$GPGGA,115523.000,4909.4713,N,02013.5782,E,1,05,2.2,1263.3,M,41.8,M,,0000*6D
$GPGSA,A,3,15,17,12,09,04,,,,,,,,3.5,2.2,2.8*32
$GPGSV,2,1,08,09,85,181,38,12,62,268,40,17,32,051,22,14,21,319,19*7C
$GPGSV,2,2,08,04,18,104,23,30,17,261,32,15,13,184,28,02,07,139,33*76
$GPRMC,115523.000,A,4909.4713,N,02013.5782,E,2.21,229.06,040908,,*04
$GPGGA,115524.000,4909.4702,N,02013.5770,E,1,05,2.2,1264.2,M,41.8,M,,0000*61
$GPGSA,A,3,15,17,12,09,04,,,,,,,,3.5,2.2,2.8*32
$GPGSV,2,1,08,09,85,181,38,12,62,268,40,17,32,051,22,14,21,319,19*7C
$GPGSV,2,2,08,04,18,104,23,30,17,261,33,15,13,184,31,02,07,139,31*7D
$GPRMC,115524.000,A,4909.4702,N,02013.5770,E,1.45,220.30,040908,,*03
$GPGGA,115525.000,4909.4700,N,02013.5763,E,1,05,2.2,1263.6,M,41.8,M,,0000*63
$GPGSA,A,3,15,17,12,09,04,,,,,,,,3.5,2.2,2.8*32
$GPGSV,2,1,08,09,85,181,38,12,62,268,40,17,32,051,22,14,21,319,19*7C
$GPGSV,2,2,08,04,18,104,23,30,17,261,33,15,13,184,33,02,07,139,27*78
$GPRMC,115525.000,A,4909.4700,N,02013.5763,E,2.70,225.39,040908,,*0B
$GPGGA,115526.000,4909.4694,N,02013.5754,E,1,05,2.2,1263.2,M,41.8,M,,0000*6C
$GPGSA,A,3,15,17,12,09,04,,,,,,,,3.5,2.2,2.8*32
$GPGSV,2,1,08,09,85,181,38,12,62,268,40,17,32,051,22,14,21,319,19*7C
$GPGSV,2,2,08,04,18,104,23,30,17,261,30,15,13,184,32,02,07,139,28*75
$GPRMC,115526.000,A,4909.4694,N,02013.5754,E,2.38,213.30,040908,,*00
$GPGGA,115527.000,4909.4688,N,02013.5747,E,1,05,2.2,1262.9,M,41.8,M,,0000*68
$GPGSA,A,3,15,17,12,09,04,,,,,,,,3.5,2.2,2.8*32
$GPGSV,2,1,08,09,85,181,38,12,62,268,40,17,32,051,22,14,21,319,19*7C
$GPGSV,2,2,08,04,18,104,23,30,17,261,31,15,13,184,33,02,07,139,29*74
$GPRMC,115527.000,A,4909.4688,N,02013.5747,E,2.20,211.19,040908,,*0E
$GPGGA,115528.000,4909.4682,N,02013.5740,E,1,05,2.2,1262.7,M,41.8,M,,0000*64
$GPGSA,A,3,15,17,12,09,04,,,,,,,,3.5,2.2,2.8*32
$GPGSV,2,1,08,09,85,181,38,12,62,268,40,17,32,051,23,14,21,319,19*7D
$GPGSV,2,2,08,04,18,104,25,30,17,261,34,15,13,184,37,02,07,139,31*7A
$GPRMC,115528.000,A,4909.4682,N,02013.5740,E,2.12,215.19,040908,,*09
$GPGGA,115529.000,4909.4676,N,02013.5734,E,1,05,2.2,1262.6,M,41.8,M,,0000*6C
$GPGSA,A,3,15,17,12,09,04,,,,,,,,3.5,2.2,2.8*32
$GPGSV,2,1,08,09,85,181,38,12,62,268,40,17,32,051,22,14,21,319,18*7D
$GPGSV,2,2,08,04,18,104,28,30,17,261,34,15,13,184,34,02,07,139,32*77
$GPRMC,115529.000,A,4909.4676,N,02013.5734,E,2.34,205.38,040908,,*06
$GPGGA,115530.000,4909.4672,N,02013.5729,E,1,04,2.8,1261.8,M,41.8,M,,0000*6A
$GPGSA,A,3,15,17,09,04,,,,,,,,,4.0,2.8,2.9*38
$GPGSV,2,1,08,09,85,181,38,12,62,268,36,17,32,051,23,14,21,319,18*7D
$GPGSV,2,2,08,04,18,104,30,30,17,261,34,15,13,184,34,02,07,139,31*7D
$GPRMC,115530.000,A,4909.4672,N,02013.5729,E,1.87,217.42,040908,,*03
$GPGGA,115531.000,4909.4666,N,02013.5725,E,1,05,2.2,1261.5,M,41.8,M,,0000*64
$GPGSA,A,3,15,17,12,09,04,,,,,,,,3.5,2.2,2.8*32
$GPGSV,2,1,08,09,85,181,38,12,62,268,31,17,32,051,23,14,21,319,18*7A
$GPGSV,2,2,08,04,18,104,32,30,17,261,34,15,13,184,33,02,07,139,31*78
$GPRMC,115531.000,A,4909.4666,N,02013.5725,E,2.11,200.54,040908,,*06
$GPGGA,115532.000,4909.4660,N,02013.5722,E,1,05,2.2,1260.9,M,41.8,M,,0000*6B
$GPGSA,A,3,15,17,12,09,04,,,,,,,,3.5,2.2,2.8*32
$GPGSV,2,1,08,09,85,181,38,12,62,268,36,17,32,051,23,14,21,319,18*7D
$GPGSV,2,2,08,04,18,104,33,30,17,261,33,15,13,184,33,02,07,139,30*7F
$GPRMC,115532.000,A,4909.4660,N,02013.5722,E,2.61,200.59,040908,,*0E
$GPGGA,115533.000,4909.4654,N,02013.5717,E,1,05,2.2,1260.3,M,41.8,M,,0000*61
$GPGSA,A,3,15,17,12,09,04,,,,,,,,3.5,2.2,2.8*32
$GPGSV,2,1,08,09,85,181,39,12,62,268,35,17,32,051,23,14,21,319,18*7F
$GPGSV,2,2,08,04,18,104,32,30,17,261,33,15,13,184,33,02,07,139,30*7E
$GPRMC,115533.000,A,4909.4654,N,02013.5717,E,2.55,207.95,040908,,*0E
$GPGGA,115534.000,4909.4648,N,02013.5714,E,1,05,2.2,1259.8,M,41.8,M,,0000*69
$GPGSA,A,3,15,17,12,09,04,,,,,,,,3.5,2.2,2.8*32
$GPGSV,2,1,08,09,85,181,39,12,62,268,36,17,32,051,23,14,21,319,18*7C
$GPGSV,2,2,08,04,18,104,29,30,17,261,34,15,13,184,33,02,07,139,30*73
$GPRMC,115534.000,A,4909.4648,N,02013.5714,E,1.23,195.95,040908,,*0D
$GPGGA,115535.000,4909.4642,N,02013.5710,E,1,05,2.2,1259.6,M,41.8,M,,0000*68
$GPGSA,A,3,15,17,12,09,04,,,,,,,,3.5,2.2,2.8*32
$GPGSV,2,1,08,09,85,181,39,12,62,268,36,17,32,051,23,14,21,319,19*7D
$GPGSV,2,2,08,04,18,104,27,30,17,261,34,15,13,184,33,02,07,139,31*7C
$GPRMC,115535.000,A,4909.4642,N,02013.5710,E,1.68,209.92,040908,,*0C
$GPGGA,115536.000,4909.4635,N,02013.5705,E,1,05,2.2,1259.5,M,41.8,M,,0000*6C
$GPGSA,A,3,15,17,12,09,04,,,,,,,,3.5,2.2,2.8*32
$GPGSV,2,1,08,09,85,181,39,12,62,268,36,17,32,051,23,14,21,319,19*7D
$GPGSV,2,2,08,04,18,104,27,30,17,261,34,15,13,184,36,02,07,139,31*79
$GPRMC,115536.000,A,4909.4635,N,02013.5705,E,1.97,213.91,040908,,*03
$GPGGA,115537.000,4909.4627,N,02013.5700,E,1,05,2.2,1259.6,M,41.8,M,,0000*68
$GPGSA,A,3,15,17,12,09,04,,,,,,,,3.5,2.2,2.8*32
$GPGSV,2,1,08,09,85,181,39,12,62,268,36,17,32,051,23,14,21,319,19*7D
$GPGSV,2,2,08,04,18,104,29,30,17,261,33,15,13,184,35,02,07,139,30*72
$GPRMC,115537.000,A,4909.4627,N,02013.5700,E,2.60,214.53,040908,,*06
$GPGGA,115538.000,4909.4618,N,02013.5695,E,1,05,2.2,1259.7,M,41.8,M,,0000*67
$GPGSA,A,3,15,17,12,09,04,,,,,,,,3.5,2.2,2.8*32
$GPGSV,2,1,08,09,85,181,38,12,62,268,36,17,32,051,23,14,21,319,19*7C
$GPGSV,2,2,08,04,18,104,31,30,17,261,30,15,13,184,35,02,07,139,23*7A
$GPRMC,115538.000,A,4909.4618,N,02013.5695,E,2.63,204.78,040908,,*03
$GPGGA,115539.000,4909.4613,N,02013.5689,E,1,05,2.2,1259.1,M,41.8,M,,0000*66
$GPGSA,A,3,15,17,12,09,04,,,,,,,,3.5,2.2,2.8*32
$GPGSV,2,1,08,09,85,181,39,12,62,268,36,17,32,051,24,14,21,319,19*7A
$GPGSV,2,2,08,04,18,104,31,30,17,261,29,15,13,184,36,02,07,139,22*70
$GPRMC,115539.000,A,4909.4613,N,02013.5689,E,2.02,213.30,040908,,*09
$GPGGA,115540.000,4909.4605,N,02013.5686,E,1,05,2.2,1259.2,M,41.8,M,,0000*63
$GPGSA,A,3,15,17,12,09,04,,,,,,,,3.5,2.2,2.8*32
$GPGSV,2,1,08,09,85,181,38,12,62,268,36,17,32,051,27,14,21,319,19*78
$GPGSV,2,2,08,04,18,104,31,30,17,261,29,15,13,184,36,02,07,139,23*71
$GPRMC,115540.000,A,4909.4605,N,02013.5686,E,2.36,200.92,040908,,*02
$GPGGA,115541.000,4909.4598,N,02013.5682,E,1,05,2.2,1258.9,M,41.8,M,,0000*6B
$GPGSA,A,3,15,17,12,09,04,,,,,,,,3.5,2.2,2.8*32
$GPGSV,2,1,08,09,85,181,38,12,62,268,37,17,32,051,27,14,21,319,23*70
$GPGSV,2,2,08,04,18,104,30,30,17,261,29,15,13,184,36,02,07,139,24*77
$GPRMC,115541.000,A,4909.4598,N,02013.5682,E,2.49,200.59,040908,,*0F
$GPGGA,115542.000,4909.4590,N,02013.5680,E,1,05,2.2,1258.8,M,41.8,M,,0000*63
$GPGSA,A,3,15,17,12,09,04,,,,,,,,3.5,2.2,2.8*32
$GPGSV,2,1,08,09,85,181,38,12,62,268,36,17,32,051,27,14,21,319,25*77
$GPGSV,2,2,08,04,18,104,30,30,17,261,29,15,13,184,36,02,07,139,32*70
$GPRMC,115542.000,A,4909.4590,N,02013.5680,E,2.27,194.59,040908,,*00
$GPGGA,115543.000,4909.4585,N,02013.5676,E,1,05,2.2,1258.4,M,41.8,M,,0000*63
$GPGSA,A,3,15,17,12,09,04,,,,,,,,3.5,2.2,2.8*32
$GPGSV,2,1,08,09,85,181,38,12,62,268,36,17,32,051,27,14,21,319,24*76
$GPGSV,2,2,08,04,18,104,30,30,17,261,29,15,13,184,36,02,07,139,33*71
$GPRMC,115543.000,A,4909.4585,N,02013.5676,E,2.24,206.17,040908,,*0D
$GPGGA,115544.000,4909.4577,N,02013.5672,E,1,05,2.2,1258.3,M,41.8,M,,0000*6A
$GPGSA,A,3,15,17,12,09,04,,,,,,,,3.5,2.2,2.8*32
$GPGSV,2,1,08,09,85,181,38,12,62,268,36,17,32,051,27,14,21,319,25*77
$GPGSV,2,2,08,04,18,104,26,30,17,261,29,15,13,184,36,02,07,139,35*70
$GPRMC,115544.000,A,4909.4577,N,02013.5672,E,2.59,204.10,040908,,*0C
$GPGGA,115545.000,4909.4569,N,02013.5666,E,1,05,2.2,1258.2,M,41.8,M,,0000*60
$GPGSA,A,3,15,17,12,09,04,,,,,,,,3.5,2.2,2.8*32
$GPGSV,2,1,08,09,85,181,38,12,62,268,36,17,32,051,26,14,21,319,25*76
$GPGSV,2,2,08,04,18,104,27,30,17,261,28,15,13,184,36,02,07,139,35*70
$GPRMC,115545.000,A,4909.4569,N,02013.5666,E,2.79,208.30,040908,,*0B
$GPGGA,115546.000,4909.4563,N,02013.5662,E,1,05,2.2,1258.0,M,41.8,M,,0000*6F
$GPGSA,A,3,15,17,12,09,04,,,,,,,,3.5,2.2,2.8*32
$GPGSV,2,1,08,09,85,176,38,12,62,269,36,17,31,051,26,14,21,319,25*7C
$GPGSV,2,2,08,04,19,104,26,30,17,261,21,15,13,184,36,02,08,139,35*76
$GPRMC,115546.000,A,4909.4563,N,02013.5662,E,2.14,185.78,040908,,*07
$GPGGA,115547.000,4909.4559,N,02013.5661,E,1,05,2.2,1257.1,M,41.8,M,,0000*6A
$GPGSA,A,3,15,17,12,09,04,,,,,,,,3.5,2.2,2.8*32
$GPGSV,2,1,08,09,85,176,38,12,62,269,36,17,31,051,26,14,21,319,24*7D
$GPGSV,2,2,08,04,19,104,26,30,17,261,24,15,13,184,36,02,08,139,35*73
