,*31
$GPGGA,141458.000,4909.8814,N,02016.7936,E,1,08,1.0,863.4,M,41.8,M,,0000*53
$GPGSA,A,3,02,12,09,24,30,29,31,04,,,,,1.7,1.0,1.4*30
$GPGSV,3,1,09,30,75,303,14,12,55,096,24,29,53,232,33,02,43,080,17*79
$GPGSV,3,2,09,31,23,314,17,14,20,256,,04,19,042,16,24,18,170,24*76
$GPGSV,3,3,09,09,17,162,22*4A
$GPRMC,141458.000,A,4909.8814,N,02016.7936,E,1.05,146.69,040908,,*0C
$GPGGA,141459.000,4909.8809,N,02016.7932,E,1,08,1.0,864.0,M,41.8,M,,0000*59
$GPGSA,A,3,02,12,09,24,30,29,31,04,,,,,1.7,1.0,1.4*30
$GPGSV,3,1,09,30,75,303,15,12,55,096,24,29,53,232,33,02,43,080,23*7F
$GPGSV,3,2,09,31,23,314,22,14,20,256,,04,19,042,15,24,18,170,23*74
$GPGSV,3,3,09,09,17,162,22*4A
$GPRMC,141459.000,A,4909.8809,N,02016.7932,E,0.62,178.40,040908,,*03
$GPGGA,141500.000,4909.8809,N,02016.7928,E,1,08,1.0,863.9,M,41.8,M,,0000*51
$GPGSA,A,3,02,12,09,24,30,29,31,04,,,,,1.7,1.0,1.4*30
$GPGSV,3,1,09,30,75,303,25,12,55,096,23,29,53,232,33,02,43,080,23*7B
$GPGSV,3,2,09,31,23,314,23,14,20,256,14,04,19,042,15,24,18,170,23*70
$GPGSV,3,3,09,09,17,162,23*4B
$GPRMC,141500.000,A,4909.8809,N,02016.7928,E,0.94,38.67,040908,,*3C
$GPGGA,141501.000,4909.8808,N,02016.7923,E,1,08,1.0,862.5,M,41.8,M,,0000*57
$GPGSA,A,3,02,12,09,24,30,29,31,04,,,,,1.7,1.0,1.4*30
$GPGSV,3,1,09,30,75,303,25,12,55,096,20,29,53,232,33,02,43,080,21*7A
$GPGSV,3,2,09,31,23,314,21,14,20,256,07,04,19,042,15,24,18,170,24*77
$GPGSV,3,3,09,09,17,162,23*4B
$GPRMC,141501.000,A,4909.8808,N,02016.7923,E,0.23,172.47,040908,,*06
$GPGGA,141502.000,4909.8810,N,02016.7921,E,1,07,1.0,862.1,M,41.8,M,,0000*54
$GPGSA,A,3,12,09,24,30,29,31,04,,,,,,1.8,1.0,1.5*3C
$GPGSV,3,1,09,30,75,303,25,12,55,096,19,29,53,232,33,02,43,080,14*76
$GPGSV,3,2,09,31,23,314,21,14,20,256,07,04,19,042,15,24,18,170,24*77
$GPGSV,3,3,09,09,17,162,26*4E
$GPRMC,141502.000,A,4909.8810,N,02016.7921,E,1.05,44.89,040908,,*3D
$GPGGA,141503.000,4909.8813,N,02016.7911,E,1,08,1.0,860.4,M,41.8,M,,0000*5D
$GPGSA,A,3,02,12,09,24,30,29,31,04,,,,,1.7,1.0,1.4*30
$GPGSV,3,1,09,30,75,303,25,12,55,096,19,29,53,232,33,02,43,080,13*71
$GPGSV,3,2,09,31,23,314,21,14,20,256,,04,19,042,15,24,18,170,24*70
$GPGSV,3,3,09,09,17,162,27*4F
$GPRMC,141503.000,A,4909.8813,N,02016.7911,E,1.42,334.64,040908,,*08
$GPGGA,141504.000,4909.8814,N,02016.7902,E,1,08,1.0,859.6,M,41.8,M,,0000*57
$GPGSA,A,3,02,12,09,24,30,29,31,04,,,,,1.7,1.0,1.4*30
$GPGSV,3,1,09,30,75,303,25,12,55,096,19,29,53,232,33,02,43,080,12*70
$GPGSV,3,2,09,31,23,314,20,14,20,256,11,04,19,042,15,24,18,170,25*70
$GPGSV,3,3,09,09,17,162,26*4E
$GPRMC,141504.000,A,4909.8814,N,02016.7902,E,0.75,333.53,040908,,*0C
$GPGGA,141505.000,4909.8812,N,02016.7894,E,1,08,1.0,859.5,M,41.8,M,,0000*5D
$GPGSA,A,3,02,12,09,24,30,29,31,04,,,,,1.7,1.0,1.4*30
$GPGSV,3,1,09,30,75,303,25,12,55,096,19,29,53,232,32,02,43,080,12*71
$GPGSV,3,2,09,31,23,314,20,14,20,256,07,04,19,042,15,24,18,170,25*77
$GPGSV,3,3,09,09,17,162,26*4E
$GPRMC,141505.000,A,4909.8812,N,02016.7894,E,0.75,201.62,040908,,*07
$GPGGA,141506.000,4909.8809,N,02016.7891,E,1,08,1.0,859.6,M,41.8,M,,0000*52
$GPGSA,A,3,02,12,09,24,30,29,31,04,,,,,1.7,1.0,1.4*30
$GPGSV,3,1,09,30,75,303,25,12,55,096,18,29,53,232,32,02,43,080,12*70
$GPGSV,3,2,09,31,23,314,21,14,20,256,08,04,19,042,15,24,18,170,25*79
$GPGSV,3,3,09,09,17,162,23*4B
$GPRMC,141506.000,A,4909.8809,N,02016.7891,E,0.61,154.69,040908,,*06
$GPGGA,141507.000,4909.8806,N,02016.7890,E,1,07,1.0,860.1,M,41.8,M,,0000*5F
$GPGSA,A,3,12,09,24,30,29,31,04,,,,,,1.8,1.0,1.5*3C
$GPGSV,3,1,09,30,75,303,25,12,55,096,18,29,53,232,29,02,43,080,12*7A
$GPGSV,3,2,09,31,23,314,21,14,20,256,09,04,19,042,15,24,18,170,25*78
$GPGSV,3,3,09,09,17,162,19*42
$GPRMC,141507.000,A,4909.8806,N,02016.7890,E,0.53,218.65,040908,,*0F
$GPGGA,141508.000,4909.8805,N,02016.7884,E,1,07,1.0,858.9,M,41.8,M,,0000*55
$GPGSA,A,3,12,09,24,30,29,31,04,,,,,,1.8,1.0,1.5*3C
$GPGSV,3,1,09,30,75,303,26,12,55,096,18,29,53,232,29,02,43,080,12*79
$GPGSV,3,2,09,31,23,314,21,14,20,256,,04,19,042,16,24,18,170,25*72
$GPGSV,3,3,09,09,17,162,18*43
$GPRMC,141508.000,A,4909.8805,N,02016.7884,E,0.57,25.84,040908,,*31
$GPGGA,141509.000,4909.8803,N,02016.7885,E,1,07,1.0,859.1,M,41.8,M,,0000*5A
$GPGSA,A,3,12,09,24,30,29,31,04,,,,,,1.8,1.0,1.5*3C
$GPGSV,3,1,09,30,75,303,26,12,55,096,18,29,53,232,29,02,43,080,11*7A
$GPGSV,3,2,09,31,23,314,22,14,20,256,11,04,19,042,16,24,18,170,25*71
$GPGSV,3,3,09,09,17,162,18*43
$GPRMC,141509.000,A,4909.8803,N,02016.7885,E,0.91,68.36,040908,,*3D
$GPGGA,141510.000,4909.8799,N,02016.7885,E,1,07,1.0,858.4,M,41.8,M,,0000*5A
$GPGSA,A,3,12,09,24,30,29,31,04,,,,,,1.8,1.0,1.5*3C
$GPGSV,3,1,09,30,75,303,26,12,55,096,19,29,53,232,30,02,43,080,*73
$GPGSV,3,2,09,31,23,314,22,14,20,256,08,04,19,042,16,24,18,170,24*78
$GPGSV,3,3,09,09,17,162,19*42
$GPRMC,141510.000,A,4909.8799,N,02016.7885,E,0.88,87.20,040908,,*37
$GPGGA,141511.000,4909.8797,N,02016.7882,E,1,07,1.0,857.3,M,41.8,M,,0000*5A
$GPGSA,A,3,12,09,24,30,29,31,04,,,,,,1.8,1.0,1.5*3C
$GPGSV,3,1,09,30,75,303,26,12,55,096,19,29,53,232,31,02,43,080,*72
$GPGSV,3,2,09,31,23,314,22,14,20,256,12,04,19,042,16,24,18,170,24*73
$GPGSV,3,3,09,09,17,162,19*42
$GPRMC,141511.000,A,4909.8797,N,02016.7882,E,0.80,62.69,040908,,*31
$GPGGA,141512.000,4909.8796,N,02016.7879,E,1,08,0.9,856.1,M,41.8,M,,0000*58
$GPGSA,A,3,12,09,24,30,29,31,14,04,,,,,1.6,0.9,1.4*3E
$GPGSV,3,1,09,30,75,303,26,12,55,096,19,29,53,232,31,02,43,080,*72
$GPGSV,3,2,09,31,23,314,23,14,20,256,14,04,19,042,16,24,18,170,24*74
$GPGSV,3,3,09,09,17,162,19*42
$GPRMC,141512.000,A,4909.8796,N,02016.7879,E,1.04,43.75,040908,,*34
$GPGGA,141513.000,4909.8797,N,02016.7878,E,1,08,0.9,854.7,M,41.8,M,,0000*5D
$GPGSA,A,3,12,09,24,30,29,31,14,04,,,,,1.6,0.9,1.4*3E
$GPGSV,3,1,09,30,75,303,26,12,55,096,19,29,53,232,31,02,43,080,*72
$GPGSV,3,2,09,31,23,314,23,14,20,256,14,04,19,042,16,24,18,170,24*74
$GPGSV,3,3,09,09,17,162,19*42
$GPRMC,141513.000,A,4909.8797,N,02016.7878,E,0.97,95.55,040908,,*37
$GPGGA,141514.000,4909.8796,N,02016.7881,E,1,08,0.9,853.9,M,41.8,M,,0000*54
$GPGSA,A,3,12,09,24,30,29,31,14,04,,,,,1.6,0.9,1.4*3E
$GPGSV,3,1,09,30,75,303,26,12,55,096,20,29,53,232,31,02,43,080,17*7E
$GPGSV,3,2,09,31,23,314,23,14,20,256,15,04,19,042,16,24,18,170,24*75
$GPGSV,3,3,09,09,17,162,19*42
$GPRMC,141514.000,A,4909.8796,N,02016.7881,E,0.84,76.57,040908,,*3A
$GPGGA,141515.000,4909.8796,N,02016.7885,E,1,08,0.9,854.3,M,41.8,M,,0000*5C
$GPGSA,A,3,12,09,24,30,29,31,14,04,,,,,1.6,0.9,1.4*3E
$GPGSV,3,1,09,30,75,303,26,12,55,096,20,29,53,232,31,02,43,080,13*7A
$GPGSV,3,2,09,31,23,314,24,14,20,256,15,04,19,042,16,24,18,170,24*72
$GPGSV,3,3,09,09,17,162,19*42
$GPRMC,141515.000,A,4909.8796,N,02016.7885,E,0.73,44.96,040908,,*3B
$GPGGA,141516.000,4909.8796,N,02016.7885,E,1,07,1.0,853.6,M,41.8,M,,0000*5A
$GPGSA,A,3,12,09,24,30,29,31,04,,,,,,1.8,1.0,1.5*3C
$GPGSV,3,1,09,30,75,304,26,12,55,096,20,29,54,232,31,02,43,080,12*7B
$GPGSV,3,2,09,31,23,314,24,14,19,256,15,24,19,170,24,04,18,042,16*78
$GPGSV,3,3,09,09,16,162,19*43
$GPRMC,141516.000,A,4909.8796,N,02016.7885,E,0.59,11.67,040908,,*3E
$GPGGA,141517.000,4909.8796,N,02016.7887,E,1,08,1.0,853.1,M,41.8,M,,0000*51
$GPGSA,A,3,02,12,09,24,30,29,31,04,,,,,1.7,1.0,1.4*30
$GPGSV,3,1,09,30,75,304,26,12,55,096,20,29,54,232,31,02,43,080,12*7B
$GPGSV,3,2,09,31,23,314,24,14,19,256,15,24,19,170,24,04,18,042,16*78
$GPGSV,3,3,09,09,16,162,19*43
$GPRMC,141517.000,A,4909.8796,N,02016.7887,E,0.91,96.22,040908,,*37
$GPGGA,141518.000,4909.8795,N,02016.7885,E,1,08,1.0,852.8,M,41.8,M,,0000*57
$GPGSA,A,3,02,12,09,24,30,29,31,04,,,,,1.7,1.0,1.4*30
$GPGSV,3,1,09,30,75,304,26,12,55,096,20,29,54,232,31,02,43,080,14*7D
$GPGSV,3,2,09,31,23,314,24,14,19,256,15,24,19,170,24,04,18,042,16*78
$GPGSV,3,3,09,09,16,162,19*43
$GPRMC,141518.000,A,4909.8795,N,02016.7885,E,0.47,92.55,040908,,*36
$GPGGA,141519.000,4909.8795,N,02016.7878,E,1,08,1.0,851.9,M,41.8,M,,0000*56
$GPGSA,A,3,02,12,09,24,30,29,31,04,,,,,1.7,1.0,1.4*30
$GPGSV,3,1,09,30,75,304,26,12,55,096,21,29,54,232,31,02,43,080,14*7C
$GPGSV,3,2,09,31,23,314,24,14,19,256,15,24,19,170,24,04,18,042,16*78
$GPGSV,3,3,09,09,16,162,19*43
$GPRMC,141519.000,A,4909.8795,N,02016.7878,E,1.25,306.75,040908,,*0C
$GPGGA,141520.000,4909.8795,N,02016.7873,E,1,09,0.9,851.5,M,41.8,M,,0000*52
$GPGSA,A,3,02,12,09,24,30,29,31,14,04,,,,1.6,0.9,1.3*3B
$GPGSV,3,1,09,30,75,304,26,12,55,096,21,29,54,232,31,02,43,080,13*7B
$GPGSV,3,2,09,31,23,314,24,14,19,256,14,24,19,170,24,04,18,042,16*79
$GPGSV,3,3,09,09,16,162,19*43
$GPRMC,141520.000,A,4909.8795,N,02016.7873,E,0.40,280.58,040908,,*0F
$GPGGA,141521.000,4909.8795,N,02016.7875,E,1,09,0.9,851.4,M,41.8,M,,0000*54
$GPGSA,A,3,02,12,09,24,30,29,31,14,04,,,,1.6,0.9,1.3*3B
$GPGSV,3,1,09,30,75,304,26,12,55,096,21,29,54,232,32,02,43,080,13*78
$GPGSV,3,2,09,31,23,314,24,14,19,256,14,24,19,170,24,04,18,042,16*79
$GPGSV,3,3,09,09,16,162,19*43
$GPRMC,141521.000,A,4909.8795,N,02016.7875,E,0.69,64.18,040908,,*3F
$GPGGA,141522.000,4909.8793,N,02016.7877,E,1,09,0.9,851.1,M,41.8,M,,0000*56
$GPGSA,A,3,02,12,09,24,30,29,31,14,04,,,,1.6,0.9,1.3*3B
$GPGSV,3,1,09,30,75,304,26,12,55,096,21,29,54,232,32,02,43,080,13*78
$GPGSV,3,2,09,31,23,314,25,14,19,256,14,24,19,170,24,04,18,042,16*78
$GPGSV,3,3,09,09,16,162,19*43
$GPRMC,141522.000,A,4909.8793,N,02016.7877,E,0.42,157.23,040908,,*08
$GPGGA,141523.000,4909.8793,N,02016.7880,E,1,09,0.9,851.2,M,41.8,M,,0000*5C
$GPGSA,A,3,02,12,09,24,30,29,31,14,04,,,,1.6,0.9,1.3*3B
$GPGSV,3,1,09,30,75,304,26,12,55,096,21,29,54,232,32,02,43,080,13*78
$GPGSV,3,2,09,31,23,314,25,14,19,256,14,24,19,170,24,04,18,042,16*78
$GPGSV,3,3,09,09,16,162,19*43
$GPRMC,141523.000,A,4909.8793,N,02016.7880,E,0.62,104.05,040908,,*01
$GPGGA,141524.000,4909.8792,N,02016.7880,E,1,08,0.9,851.0,M,41.8,M,,0000*59
$GPGSA,A,3,12,09,24,30,29,31,14,04,,,,,1.6,0.9,1.4*3E
$GPGSV,3,1,09,30,75,304,26,12,55,096,21,29,54,232,32,02,43,080,12*79
$GPGSV,3,2,09,31,23,314,25,14,19,256,14,24,19,170,24,04,18,042,16*78
$GPGSV,3,3,09,09,16,162,19*43
$GPRMC,141524.000,A,4909.8792,N,02016.7880,E,0.21,254.98,040908,,*02
$GPGGA,141525.000,4909.8793,N,02016.7877,E,1,08,0.9,850.6,M,41.8,M,,0000*56
$GPGSA,A,3,12,09,24,30,29,31,14,04,,,,,1.6,0.9,1.4*3E
$GPGSV,3,1,09,30,75,304,26,12,55,096,21,29,54,232,32,02,43,080,12*79
$GPGSV,3,2,09,31,23,314,25,14,19,256,14,24,19,170,24,04,18,042,16*78
$GPGSV,3,3,09,09,16,162,19*43
$GPRMC,141525.000,A,4909.8793,N,02016.7877,E,0.87,305.79,040908,,*0C
$GPGGA,141526.000,4909.8792,N,02016.7874,E,1,08,0.9,850.6,M,41.8,M,,0000*57
$GPGSA,A,3,12,09,24,30,29,31,14,04,,,,,1.6,0.9,1.4*3E
$GPGSV,3,1,09,30,75,304,26,12,55,096,21,29,54,232,32,02,43,080,12*79
$GPGSV,3,2,09,31,23,314,25,14,19,256,14,24,19,170,25,04,18,042,16*79
$GPGSV,3,3,09,09,16,162,19*43
$GPRMC,141526.000,A,4909.8792,N,02016.7874,E,1.00,255.99,040908,,*09
$GPGGA,141527.000,4909.8790,N,02016.7879,E,1,09,0.9,851.0,M,41.8,M,,0000*5F
$GPGSA,A,3,02,12,09,24,30,29,31,14,04,,,,1.6,0.9,1.3*3B
$GPGSV,3,1,09,30,75,304,26,12,55,096,21,29,54,232,32,02,43,080,12*79
$GPGSV,3,2,09,31,23,314,25,14,19,256,14,24,19,170,25,04,18,042,16*79
$GPGSV,3,3,09,09,16,162,19*43
$GPRMC,141527.000,A,4909.8790,N,02016.7879,E,0.65,71.68,040908,,*3F
$GPGGA,141528.000,4909.8789,N,02016.7880,E,1,09,0.9,851.2,M,41.8,M,,0000*5C
$GPGSA,A,3,02,12,09,24,30,29,31,14,04,,,,1.6,0.9,1.3*3B
$GPGSV,3,1,09,30,75,304,26,12,55,096,21,29,54,232,32,02,43,080,12*79
$GPGSV,3,2,09,31,23,314,25,14,19,256,14,24,19,170,25,04,18,042,16*79
$GPGSV,3,3,09,09,16,162,19*43
$GPRMC,141528.000,A,4909.8789,N,02016.7880,E,0.37,80.70,040908,,*3E
$GPGGA,141529.000,4909.8789,N,02016.7876,E,1,09,0.9,851.3,M,41.8,M,,0000*55
$GPGSA,A,3,02,12,09,24,30,29,31,14,04,,,,1.6,0.9,1.3*3B
$GPGSV,3,1,09,30,75,304,26,12,55,096,21,29,54,232,33,02,43,080,13*79
$GPGSV,3,2,09,31,23,314,25,14,19,256,14,24,19,170,25,04,18,042,16*79
$GPGSV,3,3,09,09,16,162,19*43
$GPRMC,141529.000,A,4909.8789,N,02016.7876,E,0.51,27.84,040908,,*30
$GPGGA,141530.000,4909.8792,N,02016.7870,E,1,08,1.1,850.3,M,41.8,M,,0000*58
$GPGSA,A,3,02,12,09,24,30,29,31,14,,,,,2.0,1.1,1.6*36
$GPGSV,3,1,09,30,75,304,27,12,55,096,21,29,54,232,33,02,43,080,13*78
$GPGSV,3,2,09,31,23,314,25,14,19,256,14,24,19,170,25,04,18,042,16*79
$GPGSV,3,3,09,09,16,162,19*43
$GPRMC,141530.000,A,4909.8792,N,02016.7870,E,0.36,341.36,040908,,*0F
$GPGGA,141531.000,4909.8792,N,02016.7865,E,1,07,1.2,850.2,M,41.8,M,,0000*50
$GPGSA,A,3,02,12,09,24,30,29,31,,,,,,2.0,1.2,1.7*31
$GPGSV,3,1,09,30,75,304,27,12,55,096,21,29,54,232,33,02,43,080,14*7F
$GPGSV,3,2,09,31,23,314,25,14,19,256,13,24,19,170,25,04,18,042,16*7E
$GPGSV,3,3,09,09,16,162,18*42
$GPRMC,141531.000,A,4909.8792,N,02016.7865,E,0.63,288.15,040908,,*0F
$GPGGA,141532.000,4909.8791,N,02016.7861,E,1,08,1.0,850.0,M,41.8,M,,0000*5B
$GPGSA,A,3,02,12,09,24,30,29,31,04,,,,,1.7,1.0,1.4*30
$GPGSV,3,1,09,30,75,304,26,12,55,096,21,29,54,232,33,02,43,080,24*7D
$GPGSV,3,2,09,31,23,314,25,14,19,256,14,24,19,170,25,04,18,042,25*79
$GPGSV,3,3,09,09,16,162,18*42
$GPRMC,141532.000,A,4909.8791,N,02016.7861,E,0.38,312.84,040908,,*0F
$GPGGA,141533.000,4909.8791,N,02016.7865,E,1,09,0.9,850.5,M,41.8,M,,0000*52
$GPGSA,A,3,02,12,09,24,30,29,31,14,04,,,,1.6,0.9,1.3*3B
$GPGSV,3,1,09,30,75,304,17,12,55,096,21,29,54,232,33,02,43,080,26*7D
$GPGSV,3,2,09,31,23,314,25,14,19,256,15,24,19,170,25,04,18,042,26*7B
$GPGSV,3,3,09,09,16,162,26*4F
$GPRMC,141533.000,A,4909.8791,N,02016.7865,E,0.56,69.41,040908,,*34
$GPGGA,141534.000,4909.8791,N,02016.7870,E,1,08,1.0,851.3,M,41.8,M,,0000*5F
$GPGSA,A,3,02,12,09,24,30,29,31,04,,,,,1.7,1.0,1.4*30
$GPGSV,3,1,09,30,75,304,18,12,55,096,21,29,54,232,28,02,43,080,25*7B
$GPGSV,3,2,09,31,23,314,25,14,19,256,15,24,19,170,16,04,18,042,18*76
$GPGSV,3,3,09,09,16,162,24*4D
$GPRMC,141534.000,A,4909.8791,N,02016.7870,E,0.61,44.91,040908,,*31
$GPGGA,141535.000,4909.8790,N,02016.7872,E,1,08,1.0,851.7,M,41.8,M,,0000*59
$GPGSA,A,3,02,12,09,24,30,29,31,04,,,,,1.7,1.0,1.4*30
$GPGSV,3,1,09,30,75,304,17,12,55,096,21,29,54,232,26,02,43,080,25*7A
$GPGSV,3,2,09,31,23,314,25,14,19,256,15,24,19,170,14,04,18,042,16*7A
$GPGSV,3,3,09,09,16,162,23*4A
$GPRMC,141535.000,A,4909.8790,N,02016.7872,E,0.71,119.58,040908,,*0E
$GPGGA,141536.000,4909.8788,N,02016.7876,E,1,09,0.9,852.7,M,41.8,M,,0000*5D
$GPGSA,A,3,02,12,09,24,30,29,31,14,04,,,,1.6,0.9,1.3*3B
$GPGSV,3,1,09,30,75,304,18,12,55,096,21,29,54,232,26,02,43,080,26*76
$GPGSV,3,2,09,31,23,314,26,14,19,256,16,24,19,170,13,04,18,042,16*7D
$GPGSV,3,3,09,09,16,162,21*48
$GPRMC,141536.000,A,4909.8788,N,02016.7876,E,0.84,148.78,040908,,*0C
$GPGGA,141537.000,4909.8789,N,02016.7877,E,1,08,1.1,853.1,M,41.8,M,,0000*53
$GPGSA,A,3,02,12,09,24,30,29,31,14,,,,,2.0,1.1,1.6*36
$GPGSV,3,1,09,30,75,304,18,12,55,096,21,29,54,232,25,02,43,080,26*75
$GPGSV,3,2,09,31,23,314,26,14,19,256,16,24,19,170,13,04,18,042,17*7C
$GPGSV,3,3,09,09,16,162,18*42
$GPRMC,141537.000,A,4909.8789,N,02016.7877,E,0.36,165.21,040908,,*07
$GPGGA,141538.000,4909.8789,N,02016.7874,E,1,09,0.9,853.1,M,41.8,M,,0000*57
$GPGSA,A,3,02,12,09,24,30,29,31,14,04,,,,1.6,0.9,1.3*3B
$GPGSV,3,1,09,30,75,304,18,12,55,096,22,29,54,232,26,02,43,080,26*75
$GPGSV,3,2,09,31,23,314,26,14,19,256,17,24,19,170,13,04,18,042,20*79
$GPGSV,3,3,09,09,16,162,20*49
$GPRMC,141538.000,A,4909.8789,N,02016.7874,E,0.29,250.90,040908,,*0A
$GPGGA,141539.000,4909.8792,N,02016.7871,E,1,09,0.9,853.5,M,41.8,M,,0000*5D
$GPGSA,A,3,02,12,09,24,30,29,31,14,04,,,,1.6,0.9,1.3*3B
$GPGSV,3,1,09,30,75,304,18,12,55,096,22,29,54,232,26,02,43,080,26*75
$GPGSV,3,2,09,31,23,314,27,14,19,256,17,24,19,170,14,04,18,042,26*79
$GPGSV,3,3,09,09,16,162,21*48
$GPRMC,141539.000,A,4909.8792,N,02016.7871,E,0.95,346.46,040908,,*0E
$GPGGA,141540.000,4909.8793,N,02016.7871,E,1,09,0.9,853.4,M,41.8,M,,0000*53
$GPGSA,A,3,02,12,09,24,30,29,31,14,04,,,,1.6,0.9,1.3*3B
$GPGSV,3,1,09,30,75,304,18,12,55,096,22,29,54,232,26,02,43,080,27*74
$GPGSV,3,2,09,31,23,314,27,14,19,256,17,24,19,170,15,04,18,042,25*7B
$GPGSV,3,3,09,09,16,162,22*4B
$GPRMC,141540.000,A,4909.8793,N,02016.7871,E,0.44,164.43,040908,,*0A
$GPGGA,141541.000,4909.8794,N,02016.7874,E,1,09,0.9,853.8,M,41.8,M,,0000*5C
$GPGSA,A,3,02,12,09,24,30,29,31,14,04,,,,1.6,0.9,1.3*3B
$GPGSV,3,1,09,30,75,304,18,12,55,096,22,29,54,232,26,02,43,080,27*74
$GPGSV,3,2,09,31,23,314,27,14,19,256,17,24,19,170,23,04,18,042,26*7D
$GPGSV,3,3,09,09,16,162,22*4B
$GPRMC,141541.000,A,4909.8794,N,02016.7874,E,0.58,41.73,040908,,*31
$GPGGA,141542.000,4909.8793,N,02016.7876,E,1,09,0.9,853.2,M,41.8,M,,0000*50
$GPGSA,A,3,02,12,09,24,30,29,31,14,04,,,,1.6,0.9,1.3*3B
$GPGSV,3,1,09,30,75,304,18,12,55,096,22,29,54,232,27,02,43,080,27*75
$GPGSV,3,2,09,31,23,314,27,14,19,256,17,24,19,170,23,04,18,042,26*7D
$GPGSV,3,3,09,09,16,162,22*4B
$GPRMC,141542.000,A,4909.8793,N,02016.7876,E,0.91,163.28,040908,,*0D
$GPGGA,141543.000,4909.8791,N,02016.7874,E,1,08,0.9,853.8,M,41.8,M,,0000*5A
$GPGSA,A,3,02,12,09,24,29,31,14,04,,,,,1.9,0.9,1.7*33
$GPGSV,3,1,09,30,75,304,18,12,55,096,21,29,54,232,27,02,43,080,27*76
$GPGSV,3,2,09,31,23,314,27,14,19,256,17,24,19,170,22,04,18,042,26*7C
$GPGSV,3,3,09,09,16,162,23*4A
$GPRMC,141543.000,A,4909.8791,N,02016.7874,E,0.28,247.61,040908,,*06
$GPGGA,141544.000,4909.8791,N,02016.7871,E,1,08,0.9,854.5,M,41.8,M,,0000*52
$GPGSA,A,3,02,12,09,24,29,31,14,04,,,,,1.9,0.9,1.7*33
$GPGSV,3,1,09,30,75,304,17,12,55,096,21,29,54,232,27,02,43,080,27*79
$GPGSV,3,2,09,31,23,314,27,14,19,256,17,24,19,170,16,04,18,042,26*7B
$GPGSV,3,3,09,09,16,162,22*4B
$GPRMC,141544.000,A,4909.8791,N,02016.7871,E,0.29,333.24,040908,,*06
$GPGGA,141545.000,4909.8791,N,02016.7869,E,1,09,0.9,854.5,M,41.8,M,,0000*5B
$GPGSA,A,3,02,12,09,24,30,29,31,14,04,,,,1.6,0.9,1.3*3B
$GPGSV,3,1,09,30,75,304,17,12,55,096,21,29,54,232,25,02,43,080,27*7B
$GPGSV,3,2,09,31,23,314,27,14,19,256,16,24,19,170,18,04,18,042,26*74
$GPGSV,3,3,09,09,16,162,22*4B
$GPRMC,141545.000,A,4909.8791,N,02016.7869,E,0.31,219.51,040908,,*0C
$GPGGA,141546.000,4909.8792,N,02016.7869,E,1,09,0.9,855.0,M,41.8,M,,0000*5F
$GPGSA,A,3,02,12,09,24,30,29,31,14,04,,,,1.6,0.9,1.3*3B
$GPGSV,3,1,09,30,75,304,17,12,55,096,21,29,54,232,23,02,43,080,27*7D
$GPGSV,3,2,09,31,23,314,27,14,19,256,16,24,19,170,16,04,18,042,26*7A
$GPGSV,3,3,09,09,16,162,22*4B
$GPRMC,141546.000,A,4909.8792,N,02016.7869,E,0.55,85.53,040908,,*3B
$GPGGA,141547.000,4909.8794,N,02016.7870,E,1,09,0.9,855.2,M,41.8,M,,0000*52
$GPGSA,A,3,02,12,09,24,30,29,31,14,04,,,,1.6,0.9,1.3*3B
$GPGSV,3,1,09,30,75,304,17,12,55,096,21,29,54,232,25,02,43,080,27*7B
$GPGSV,3,2,09,31,23,314,27,14,19,256,16,24,19,170,16,04,18,042,26*7A
$GPGSV,3,3,09,09,16,162,22*4B
$GPRMC,141547.000,A,4909.8794,N,02016.7870,E,0.34,241.22,040908,,*0F
$GPGGA,141548.000,4909.8795,N,02016.7871,E,1,09,0.9,855.3,M,41.8,M,,0000*5C
$GPGSA,A,3,02,12,09,24,30,29,31,14,04,,,,1.6,0.9,1.3*3B
$GPGSV,3,1,09,30,75,304,17,12,55,096,21,29,54,232,26,02,43,080,27*78
$GPGSV,3,2,09,31,23,314,21,14,19,256,17,24,19,170,16,04,18,042,26*7D
$GPGSV,3,3,09,09,16,162,22*4B
$GPRMC,141548.000,A,4909.8795,N,02016.7871,E,0.57,147.40,040908,,*04
$GPGGA,141549.000,4909.8794,N,02016.7874,E,1,09,0.9,855.5,M,41.8,M,,0000*5F
$GPGSA,A,3,02,12,09,24,30,29,31,14,04,,,,1.6,0.9,1.3*3B
$GPGSV,3,1,09,30,75,304,22,12,55,096,21,29,54,232,31,02,43,080,26*79
$GPGSV,3,2,09,31,23,314,22,14,19,256,16,24,19,170,21,04,18,042,25*78
$GPGSV,3,3,09,09,16,162,22*4B
$GPRMC,141549.000,A,4909.8794,N,02016.7874,E,0.45,108.42,040908,,*0B
$GPGGA,141550.000,4909.8794,N,02016.7875,E,1,09,0.9,855.7,M,41.8,M,,0000*54
$GPGSA,A,3,02,12,09,24,30,29,31,14,04,,,,1.6,0.9,1.3*3B
$GPGSV,3,1,09,30,75,304,24,12,55,096,21,29,54,232,28,02,43,080,22*73
$GPGSV,3,2,09,31,23,314,22,14,19,256,16,24,19,170,24,04,18,042,26*7E
$GPGSV,3,3,09,09,16,162,22*4B
$GPRMC,141550.000,A,4909.8794,N,02016.7875,E,0.73,178.17,040908,,*00
$GPGGA,141551.000,4909.8792,N,02016.7874,E,1,09,0.9,856.2,M,41.8,M,,0000*54
$GPGSA,A,3,02,12,09,24,30,29,31,14,04,,,,1.6,0.9,1.3*3B
$GPGSV,3,1,09,30,75,304,23,12,55,096,21,29,54,232,28,02,43,080,22*74
$GPGSV,3,2,09,31,23,314,23,14,19,256,16,24,19,170,22,04,18,042,26*79
$GPGSV,3,3,09,09,16,162,22*4B
$GPRMC,141551.000,A,4909.8792,N,02016.7874,E,0.52,177.80,040908,,*04
$GPGGA,141552.000,4909.8792,N,02016.7872,E,1,09,0.9,856.7,M,41.8,M,,0000*54
$GPGSA,A,3,02,12,09,24,30,29,31,14,04,,,,1.6,0.9,1.3*3B
$GPGSV,3,1,09,30,75,304,23,12,55,096,21,29,54,232,28,02,43,080,23*75
$GPGSV,3,2,09,31,23,314,23,14,19,256,16,24,19,170,21,04,18,042,25*79
$GPGSV,3,3,09,09,16,162,22*4B
$GPRMC,141552.000,A,4909.8792,N,02016.7872,E,0.58,254.00,040908,,*01
$GPGGA,141553.000,4909.8791,N,02016.7869,E,1,09,0.9,856.7,M,41.8,M,,0000*5C
$GPGSA,A,3,02,12,09,24,30,29,31,14,04,,,,1.6,0.9,1.3*3B
$GPGSV,3,1,09,30,75,304,23,12,55,096,21,29,54,232,27,02,43,080,24*7D
$GPGSV,3,2,09,31,23,314,23,14,19,256,16,24,19,170,20,04,18,042,23*7E
$GPGSV,3,3,09,09,16,162,22*4B
$GPRMC,141553.000,A,4909.8791,N,02016.7869,E,0.84,226.02,040908,,*0F
$GPGGA,141554.000,4909.8790,N,02016.7866,E,1,09,0.9,857.9,M,41.8,M,,0000*5A
$GPGSA,A,3,02,12,09,24,30,29,31,14,04,,,,1.6,0.9,1.3*3B
$GPGSV,3,1,09,30,75,304,22,12,55,096,21,29,54,232,23,02,43,080,24*78
$GPGSV,3,2,09,31,23,314,23,14,19,256,16,24,19,170,20,04,18,042,18*76
$GPGSV,3,3,09,09,16,162,22*4B
$GPRMC,141554.000,A,4909.8790,N,02016.7866,E,0.75,167.68,040908,,*02
$GPGGA,141555.000,4909.8789,N,02016.7865,E,1,09,0.9,858.5,M,41.8,M,,0000*53
$GPGSA,A,3,02,12,09,24,30,29,31,14,04,,,,1.6,0.9,1.3*3B
$GPGSV,3,1,09,30,75,304,22,12,55,096,21,29,54,232,31,02,43,080,24*7B
$GPGSV,3,2,09,31,23,314,23,14,19,256,16,24,19,170,21,04,18,042,18*77
$GPGSV,3,3,09,09,16,162,22*4B
$GPRMC,141555.000,A,4909.8789,N,02016.7865,E,0.22,206.46,040908,,*02
$GPGGA,141556.000,4909.8789,N,02016.7864,E,1,09,0.9,858.9,M,41.8,M,,0000*5D
$GPGSA,A,3,02,12,09,24,30,29,31,14,04,,,,1.6,0.9,1.3*3B
$GPGSV,3,1,09,30,75,304,23,12,55,096,21,29,54,232,32,02,43,080,23*7E
$GPGSV,3,2,09,31,23,314,29,14,19,256,16,24,19,170,21,04,18,042,19*7C
$GPGSV,3,3,09,09,16,162,22*4B
$GPRMC,141556.000,A,4909.8789,N,02016.7864,E,0.30,341.37,040908,,*07
$GPGGA,141557.000,4909.8791,N,02016.7864,E,1,09,0.9,859.3,M,41.8,M,,0000*5E
$GPGSA,A,3,02,12,09,24,30,29,31,14,04,,,,1.6,0.9,1.3*3B
$GPGSV,3,1,09,30,75,304,24,12,55,096,21,29,54,232,28,02,43,080,22*73
$GPGSV,3,2,09,31,23,314,29,14,19,256,16,24,19,170,21,04,18,042,19*7C
$GPGSV,3,3,09,09,16,162,23*4A
$GPRMC,141557.000,A,4909.8791,N,02016.7864,E,0.49,183.98,040908,,*08
$GPGGA,141558.000,4909.8792,N,02016.7864,E,1,09,0.9,858.6,M,41.8,M,,0000*56
$GPGSA,A,3,02,12,09,24,30,29,31,14,04,,,,1.6,0.9,1.3*3B
$GPGSV,3,1,09,30,75,304,24,12,55,096,21,29,54,232,28,02,43,080,24*75
$GPGSV,3,2,09,31,23,314,28,14,19,256,15,24,19,170,21,04,18,042,19*7E
$GPGSV,3,3,09,09,16,162,23*4A
$GPRMC,141558.000,A,4909.8792,N,02016.7864,E,0.20,214.47,040908,,*04
$GPGGA,141559.000,4909.8793,N,02016.7868,E,1,09,0.9,857.5,M,41.8,M,,0000*56
$GPGSA,A,3,02,12,09,24,30,29,31,14,04,,,,1.6,0.9,1.3*3B
$GPGSV,3,1,09,30,75,304,23,12,55,096,21,29,54,232,27,02,43,080,24*7D
$GPGSV,3,2,09,31,23,314,28,14,19,256,15,24,19,170,17,04,18,042,19*7B
$GPGSV,3,3,09,09,16,162,23*4A
$GPRMC,141559.000,A,4909.8793,N,02016.7868,E,0.94,123.64,040908,,*01
$GPGGA,141600.000,4909.8794,N,02016.7875,E,1,09,0.9,856.8,M,41.8,M,,0000*5E
$GPGSA,A,3,02,12,09,24,30,29,31,14,04,,,,1.6,0.9,1.3*3B
$GPGSV,3,1,09,30,75,304,23,12,55,096,25,29,54,232,26,02,43,080,25*79
$GPGSV,3,2,09,31,23,314,30,14,19,256,16,24,19,170,19,04,18,042,22*77
$GPGSV,3,3,09,09,16,162,22*4B
$GPRMC,141600.000,A,4909.8794,N,02016.7875,E,0.86,126.97,040908,,*0F
$GPGGA,141601.000,4909.8796,N,02016.7876,E,1,09,0.9,856.7,M,41.8,M,,0000*51
$GPGSA,A,3,02,12,09,24,30,29,31,14,04,,,,1.6,0.9,1.3*3B
$GPGSV,3,1,09,30,75,304,23,12,55,096,25,29,54,232,26,02,43,080,26*7A
$GPGSV,3,2,09,31,23,314,37,14,19,256,16,24,19,170,19,04,18,042,28*7A
$GPGSV,3,3,09,09,16,162,22*4B
$GPRMC,141601.000,A,4909.8796,N,02016.7876,E,0.62,20.32,040908,,*3D
$GPGGA,141602.000,4909.8798,N,02016.7876,E,1,09,0.9,856.5,M,41.8,M,,0000*5E
$GPGSA,A,3,02,12,09,24,30,29,31,14,04,,,,1.6,0.9,1.3*3B
$GPGSV,3,1,09,30,75,304,23,12,55,096,25,29,54,232,27,02,43,080,27*7A
$GPGSV,3,2,09,31,23,314,36,14,19,256,16,24,19,170,19,04,18,042,22*71
$GPGSV,3,3,09,09,16,162,22*4B
$GPRMC,141602.000,A,4909.8798,N,02016.7876,E,0.20,2.42,040908,,*01
$GPGGA,141603.000,4909.8800,N,02016.7878,E,1,09,0.9,856.4,M,41.8,M,,0000*5E
$GPGSA,A,3,02,12,09,24,30,29,31,14,04,,,,1.6,0.9,1.3*3B
$GPGSV,3,1,09,30,75,304,23,12,55,096,22,29,54,232,24,02,43,080,27*7E
$GPGSV,3,2,09,31,23,314,35,14,19,256,16,24,19,170,19,04,18,042,18*7B
$GPGSV,3,3,09,09,16,162,22*4B
$GPRMC,141603.000,A,4909.8800,N,02016.7878,E,0.25,180.75,040908,,*0A
$GPGGA,141604.000,4909.8803,N,02016.7880,E,1,08,0.9,856.6,M,41.8,M,,0000*5E
$GPGSA,A,3,02,12,09,24,29,31,14,04,,,,,1.9,0.9,1.7*33
$GPGSV,3,1,09,30,75,304,21,12,55,096,13,29,54,232,15,02,43,080,27*7C
$GPGSV,3,2,09,31,23,314,35,14,19,256,17,24,19,170,19,04,18,042,18*7A
$GPGSV,3,3,09,09,16,162,22*4B
$GPRMC,141604.000,A,4909.8803,N,02016.7880,E,1.28,250.93,040908,,*03
$GPGGA,141605.000,4909.8804,N,02016.7886,E,1,09,0.9,857.7,M,41.8,M,,0000*5F
$GPGSA,A,3,02,12,09,24,30,29,31,14,04,,,,1.6,0.9,1.3*3B
$GPGSV,3,1,09,30,75,304,17,12,55,096,15,29,54,232,20,02,43,080,27*79
$GPGSV,3,2,09,31,23,314,35,14,19,256,17,24,19,170,19,04,18,042,17*75
$GPGSV,3,3,09,09,16,162,23*4A
$GPRMC,141605.000,A,4909.8804,N,02016.7886,E,0.50,204.08,040908,,*0E
$GPGGA,141606.000,4909.8807,N,02016.7886,E,1,07,1.0,858.7,M,41.8,M,,0000*56
$GPGSA,A,3,02,12,09,24,30,31,04,,,,,,1.8,1.0,1.5*35
$GPGSV,3,1,09,30,75,304,18,12,55,096,27,29,54,232,19,02,43,080,27*7D
$GPGSV,3,2,09,31,23,314,35,14,19,256,17,24,19,170,18,04,18,042,17*74
$GPGSV,3,3,09,09,16,162,23*4A
$GPRMC,141606.000,A,4909.8807,N,02016.7886,E,0.11,139.50,040908,,*0B
$GPGGA,141607.000,4909.8811,N,02016.7886,E,1,08,0.9,859.5,M,41.8,M,,0000*54
$GPGSA,A,3,02,12,09,24,30,31,14,04,,,,,1.7,0.9,1.5*37
$GPGSV,3,1,09,30,75,304,19,12,55,096,28,29,54,232,18,02,43,080,27*72
$GPGSV,3,2,09,31,23,314,35,14,19,256,17,24,19,170,19,04,18,042,17*75
$GPGSV,3,3,09,09,16,162,23*4A
$GPRMC,141607.000,A,4909.8811,N,02016.7886,E,0.61,234.32,040908,,*00
$GPGGA,141608.000,4909.8814,N,02016.7890,E,1,07,1.1,860.6,M,41.8,M,,0000*56
$GPGSA,A,3,02,12,09,24,30,14,04,,,,,,1.9,1.1,1.6*31
$GPGSV,3,1,09,30,75,304,19,12,55,096,28,29,54,232,18,02,43,080,27*72
$GPGSV,3,2,09,31,23,314,31,14,19,256,16,24,19,170,19,04,18,042,17*70
$GPGSV,3,3,09,09,16,162,23*4A
$GPRMC,141608.000,A,4909.8814,N,02016.7890,E,0.36,150.91,040908,,*07
$GPGGA,141609.000,4909.8819,N,02016.7901,E,1,09,0.9,859.8,M,41.8,M,,0000*50
$GPGSA,A,3,02,12,09,24,30,29,31,14,04,,,,1.6,0.9,1.3*3B
$GPGSV,3,1,09,30,75,304,19,12,55,096,27,29,54,232,18,02,43,080,27*7D
$GPGSV,3,2,09,31,23,314,24,14,19,256,16,24,19,170,19,04,18,042,17*74
$GPGSV,3,3,09,09,16,162,23*4A
$GPRMC,141609.000,A,4909.8819,N,02016.7901,E,1.37,64.95,040908,,*30
$GPGGA,141610.000,4909.8823,N,02016.7906,E,1,09,0.9,858.9,M,41.8,M,,0000*56
$GPGSA,A,3,02,12,09,24,30,29,31,14,04,,,,1.6,0.9,1.3*3B
$GPGSV,3,1,09,30,75,304,19,12,55,096,27,29,54,232,18,02,43,080,26*7C
$GPGSV,3,2,09,31,23,314,28,14,19,256,16,24,19,170,19,04,18,042,17*78
$GPGSV,3,3,09,09,16,162,23*4A
$GPRMC,141610.000,A,4909.8823,N,02016.7906,E,0.42,144.80,040908,,*02
$GPGGA,141611.000,4909.8828,N,02016.7906,E,1,09,0.9,857.4,M,41.8,M,,0000*5E
$GPGSA,A,3,02,12,09,24,30,29,31,14,04,,,,1.6,0.9,1.3*3B
$GPGSV,3,1,09,30,75,304,20,12,55,096,27,29,54,232,18,02,43,080,24*74
$GPGSV,3,2,09,31,23,314,29,14,19,256,15,24,19,170,19,04,18,042,17*7A
$GPGSV,3,3,09,09,16,162,23*4A
$GPRMC,141611.000,A,4909.8828,N,02016.7906,E,0.35,94.44,040908,,*3C
$GPGGA,141612.000,4909.8830,N,02016.7903,E,1,09,0.9,857.2,M,41.8,M,,0000*57
$GPGSA,A,3,02,12,09,24,30,29,31,14,04,,,,1.6,0.9,1.3*3B
$GPGSV,3,1,09,30,75,304,19,12,55,096,27,29,54,232,18,02,43,080,25*7F
$GPGSV,3,2,09,31,23,314,33,14,19,256,15,24,19,170,19,04,18,042,17*71
$GPGSV,3,3,09,09,16,162,23*4A
$GPRMC,141612.000,A,4909.8830,N,02016.7903,E,0.84,41.25,040908,,*36
$GPGGA,141613.000,4909.8832,N,02016.7901,E,1,09,0.9,857.2,M,41.8,M,,0000*56
$GPGSA,A,3,02,12,09,24,30,29,31,14,04,,,,1.6,0.9,1.3*3B
$GPGSV,3,1,09,30,75,304,19,12,55,096,27,29,54,232,18,02,43,080,25*7F
$GPGSV,3,2,09,31,23,314,36,14,19,256,15,24,19,170,19,04,18,042,17*74
$GPGSV,3,3,09,09,16,162,23*4A
$GPRMC,141613.000,A,4909.8832,N,02016.7901,E,0.19,23.11,040908,,*30
$GPGGA,141614.000,4909.8834,N,02016.7898,E,1,09,0.9,857.2,M,41.8,M,,0000*56
$GPGSA,A,3,02,12,09,24,30,29,31,14,04,,,,1.6,0.9,1.3*3B
$GPGSV,3,1,09,30,75,304,19,12,55,096,27,29,54,232,18,02,43,080,26*7C
$GPGSV,3,2,09,31,23,314,36,14,19,256,15,24,19,170,19,04,18,042,17*74
$GPGSV,3,3,09,09,16,162,23*4A
$GPRMC,141614.000,A,4909.8834,N,02016.7898,E,0.30,192.72,040908,,*05
$GPGGA,141615.000,4909.8839,N,02016.7903,E,1,08,0.9,856.5,M,41.8,M,,0000*5E
$GPGSA,A,3,02,12,09,24,29,31,14,04,,,,,1.9,0.9,1.7*33
$GPGSV,3,1,09,30,75,304,19,12,55,096,27,29,54,232,18,02,43,080,26*7C
$GPGSV,3,2,09,31,23,314,36,14,19,256,15,24,19,170,19,04,18,042,18*7B
$GPGSV,3,3,09,09,16,162,23*4A
$GPRMC,141615.000,A,4909.8839,N,02016.7903,E,1.56,42.49,040908,,*3F
$GPGGA,141616.000,4909.8841,N,02016.7900,E,1,09,0.9,857.5,M,41.8,M,,0000*51
$GPGSA,A,3,02,12,09,24,30,29,31,14,04,,,,1.6,0.9,1.3*3B
$GPGSV,3,1,09,30,75,304,19,12,55,096,27,29,54,232,20,02,43,080,26*77
$GPGSV,3,2,09,31,23,314,36,14,19,256,15,24,19,170,18,04,18,042,18*7A
$GPGSV,3,3,09,09,16,162,23*4A
$GPRMC,141616.000,A,4909.8841,N,02016.7900,E,0.09,277.43,040908,,*05
$GPGGA,141617.000,4909.8842,N,02016.7897,E,1,09,0.9,857.8,M,41.8,M,,0000*51
$GPGSA,A,3,02,12,09,24,30,29,31,14,04,,,,1.6,0.9,1.3*3B
$GPGSV,3,1,09,30,75,304,30,12,55,096,27,29,54,232,25,02,43,080,26*79
$GPGSV,3,2,09,31,23,314,36,14,19,256,15,24,19,170,27,04,18,042,18*76
$GPGSV,3,3,09,09,16,162,23*4A
$GPRMC,141617.000,A,4909.8842,N,02016.7897,E,0.87,229.42,040908,,*04
$GPGGA,141618.000,4909.8841,N,02016.7897,E,1,09,0.9,857.1,M,41.8,M,,0000*54
$GPGSA,A,3,02,12,09,24,30,29,31,14,04,,,,1.6,0.9,1.3*3B
$GPGSV,3,1,09,30,75,304,28,12,55,096,29,29,54,232,26,02,43,080,35*7F
$GPGSV,3,2,09,31,23,314,37,14,19,256,16,24,19,170,25,04,18,042,25*78
$GPGSV,3,3,09,09,16,162,23*4A
$GPRMC,141618.000,A,4909.8841,N,02016.7897,E,0.34,128.87,040908,,*0B
$GPGGA,141619.000,4909.8844,N,02016.7900,E,1,09,0.9,856.4,M,41.8,M,,0000*5B
$GPGSA,A,3,02,12,09,24,30,29,31,14,04,,,,1.6,0.9,1.3*3B
$GPGSV,3,1,09,30,75,304,20,12,55,096,42,29,54,232,26,02,43,080,43*7B
$GPGSV,3,2,09,31,23,314,33,14,19,256,16,24,19,170,21,04,18,042,27*7A
$GPGSV,3,3,09,09,16,162,22*4B
$GPRMC,141619.000,A,4909.8844,N,02016.7900,E,0.28,4.08,040908,,*05
$GPGGA,141620.000,4909.8847,N,02016.7901,E,1,09,0.9,857.0,M,41.8,M,,0000*56
$GPGSA,A,3,02,12,09,24,30,29,31,14,04,,,,1.6,0.9,1.3*3B
$GPGSV,3,1,09,30,75,304,23,12,55,096,43,29,54,232,21,02,43,080,42*7F
$GPGSV,3,2,09,31,23,314,34,14,19,256,16,24,19,170,18,04,18,042,27*77
$GPGSV,3,3,09,09,16,162,13*49
$GPRMC,141620.000,A,4909.8847,N,02016.7901,E,0.32,195.73,040908,,*03
$GPGGA,141621.000,4909.8849,N,02016.7903,E,1,08,0.9,857.5,M,41.8,M,,0000*5F
$GPGSA,A,3,02,12,09,30,29,31,14,04,,,,,1.7,0.9,1.4*3B
$GPGSV,3,1,09,30,75,304,24,12,55,096,43,29,54,232,21,02,43,080,42*78
$GPGSV,3,2,09,31,23,314,34,14,19,256,16,24,19,170,18,04,18,042,28*78
$GPGSV,3,3,09,09,16,162,13*49
$GPRMC,141621.000,A,4909.8849,N,02016.7903,E,0.04,104.05,040908,,*02
$GPGGA,141622.000,4909.8852,N,02016.7902,E,1,08,0.9,857.7,M,41.8,M,,0000*55
$GPGSA,A,3,12,09,24,30,29,31,14,04,,,,,1.6,0.9,1.4*3E
$GPGSV,3,1,09,30,75,304,24,12,55,096,30,29,54,232,23,02,43,080,26*7C
$GPGSV,3,2,09,31,23,314,23,14,19,256,21,24,19,170,18,04,18,042,28*7A
$GPGSV,3,3,09,09,16,162,13*49
$GPRMC,141622.000,A,4909.8852,N,02016.7902,E,0.57,319.80,040908,,*0F
$GPGGA,141623.000,4909.8853,N,02016.7904,E,1,09,0.9,858.6,M,41.8,M,,0000*5C
$GPGSA,A,3,02,12,09,24,30,29,31,14,04,,,,1.6,0.9,1.3*3B
$GPGSV,3,1,09,30,75,304,24,12,55,096,28,29,54,232,22,02,43,080,23*71
$GPGSV,3,2,09,31,23,314,26,14,19,256,19,24,19,170,17,04,18,042,27*74
$GPGSV,3,3,09,09,16,162,13*49
$GPRMC,141623.000,A,4909.8853,N,02016.7904,E,0.42,140.32,040908,,*0A
$GPGGA,141624.000,4909.8854,N,02016.7907,E,1,09,0.9,858.8,M,41.8,M,,0000*51
$GPGSA,A,3,02,12,09,24,30,29,31,14,04,,,,1.6,0.9,1.3*3B
$GPGSV,3,1,09,30,75,304,24,12,55,096,35,29,54,232,23,02,43,080,33*7D
$GPGSV,3,2,09,31,23,314,32,14,19,256,19,24,19,170,19,04,18,042,28*70
$GPGSV,3,3,09,09,16,162,16*4C
$GPRMC,141624.000,A,4909.8854,N,02016.7907,E,0.49,200.91,040908,,*0C
$GPGGA,141625.000,4909.8856,N,02016.7912,E,1,09,0.9,859.3,M,41.8,M,,0000*5C
$GPGSA,A,3,02,12,09,24,30,29,31,14,04,,,,1.6,0.9,1.3*3B
$GPGSV,3,1,09,30,75,304,24,12,55,096,37,29,54,232,23,02,43,080,35*79
$GPGSV,3,2,09,31,23,314,33,14,19,256,22,24,19,170,26,04,18,042,27*7A
$GPGSV,3,3,09,09,16,162,17*4D
$GPRMC,141625.000,A,4909.8856,N,02016.7912,E,0.20,20.38,040908,,*37
$GPGGA,141626.000,4909.8858,N,02016.7919,E,1,09,0.9,860.0,M,41.8,M,,0000*53
$GPGSA,A,3,02,12,09,24,30,29,31,14,04,,,,1.6,0.9,1.3*3B
$GPGSV,3,1,09,30,75,304,24,12,55,096,38,29,54,232,23,02,43,080,35*76
$GPGSV,3,2,09,31,23,314,33,14,19,256,28,24,19,170,27,04,18,042,28*7E
$GPGSV,3,3,09,09,16,162,17*4D
$GPRMC,141626.000,A,4909.8858,N,02016.7919,E,0.26,78.18,040908,,*38
$GPGGA,141627.000,4909.8857,N,02016.7923,E,1,09,0.9,860.5,M,41.8,M,,0000*51
$GPGSA,A,3,02,12,09,24,30,29,31,14,04,,,,1.6,0.9,1.3*3B
$GPGSV,3,1,09,30,75,304,24,12,55,096,38,29,54,232,23,02,43,080,35*76
$GPGSV,3,2,09,31,23,314,34,14,19,256,28,24,19,170,28,04,18,042,28*76
$GPGSV,3,3,09,09,16,162,17*4D
$GPRMC,141627.000,A,4909.8857,N,02016.7923,E,0.07,334.29,040908,,*05
$GPGGA,141628.000,4909.8856,N,02016.7926,E,1,09,0.9,861.2,M,41.8,M,,0000*5C
$GPGSA,A,3,02,12,09,24,30,29,31,14,04,,,,1.6,0.9,1.3*3B
$GPGSV,3,1,09,30,75,304,24,12,55,096,39,29,54,232,23,02,43,080,34*76
$GPGSV,3,2,09,31,23,314,34,14,19,256,28,24,19,170,28,04,18,042,28*76
$GPGSV,3,3,09,09,16,162,18*42
$GPRMC,141628.000,A,4909.8856,N,02016.7926,E,0.12,345.89,040908,,*06
$GPGGA,141629.000,4909.8856,N,02016.7932,E,1,09,0.9,860.9,M,41.8,M,,0000*52
$GPGSA,A,3,02,12,09,24,30,29,31,14,04,,,,1.6,0.9,1.3*3B
$GPGSV,3,1,09,30,75,304,24,12,55,096,39,29,54,232,23,02,43,080,34*76
$GPGSV,3,2,09,31,23,314,34,14,19,256,27,24,19,170,28,04,18,042,28*79
$GPGSV,3,3,09,09,16,162,18*42
$GPRMC,141629.000,A,4909.8856,N,02016.7932,E,0.63,72.54,040908,,*33
$GPGGA,141630.000,4909.8857,N,02016.7935,E,1,09,0.9,861.6,M,41.8,M,,0000*52
$GPGSA,A,3,02,12,09,24,30,29,31,14,04,,,,1.6,0.9,1.3*3B
$GPGSV,3,1,09,30,75,304,17,12,55,096,39,29,54,232,23,02,43,080,34*76
$GPGSV,3,2,09,31,23,314,34,14,19,256,25,24,19,170,28,04,18,042,28*7B
$GPGSV,3,3,09,09,16,162,19*43
$GPRMC,141630.000,A,4909.8857,N,02016.7935,E,0.29,96.82,040908,,*32
$GPGGA,141631.000,4909.8858,N,02016.7939,E,1,09,0.9,862.3,M,41.8,M,,0000*56
$GPGSA,A,3,02,12,09,24,30,29,31,14,04,,,,1.6,0.9,1.3*3B
$GPGSV,3,1,09,30,75,304,17,12,55,096,39,29,54,232,23,02,43,080,34*76
$GPGSV,3,2,09,31,23,314,34,14,19,256,25,24,19,170,28,04,18,042,28*7B
$GPGSV,3,3,09,09,16,162,20*49
$GPRMC,141631.000,A,4909.8858,N,02016.7939,E,0.41,50.88,040908,,*3E
$GPGGA,141632.000,4909.8860,N,02016.7944,E,1,09,0.9,862.8,M,41.8,M,,0000*5F
$GPGSA,A,3,02,12,09,24,30,29,31,14,04,,,,1.6,0.9,1.3*3B
$GPGSV,3,1,09,30,75,304,20,12,55,096,39,29,54,232,23,02,43,080,35*73
$GPGSV,3,2,09,31,23,314,34,14,19,256,24,24,19,170,28,04,18,042,28*7A
$GPGSV,3,3,09,09,16,162,24*4D
$GPRMC,141632.000,A,4909.8860,N,02016.7944,E,0.73,54.25,040908,,*3E
$GPGGA,141633.000,4909.8860,N,02016.7947,E,1,09,0.9,862.7,M,41.8,M,,0000*52
$GPGSA,A,3,02,12,09,24,30,29,31,14,04,,,,1.6,0.9,1.3*3B
$GPGSV,3,1,09,30,75,304,23,12,55,096,39,29,54,232,23,02,43,080,42*70
$GPGSV,3,2,09,31,23,314,34,14,19,256,24,24,19,170,28,04,18,042,28*7A
$GPGSV,3,3,09,09,16,162,23*4A
$GPRMC,141633.000,A,4909.8860,N,02016.7947,E,0.17,138.01,040908,,*03
$GPGGA,141634.000,4909.8859,N,02016.7950,E,1,08,0.9,862.2,M,41.8,M,,0000*5D
$GPGSA,A,3,02,12,24,30,29,31,14,04,,,,,1.7,0.9,1.4*34
$GPGSV,3,1,09,30,75,304,23,12,55,096,40,29,54,232,23,02,43,080,43*7F
$GPGSV,3,2,09,31,23,314,34,14,19,256,24,24,19,170,28,04,18,042,28*7A
$GPGSV,3,3,09,09,16,162,22*4B
$GPRMC,141634.000,A,4909.8859,N,02016.7950,E,0.11,334.86,040908,,*0F
$GPGGA,141635.000,4909.8858,N,02016.7949,E,1,08,0.9,863.0,M,41.8,M,,0000*56
$GPGSA,A,3,02,12,24,30,29,31,14,04,,,,,1.7,0.9,1.4*34
$GPGSV,3,1,09,30,75,304,22,12,55,096,40,29,54,232,24,02,43,080,43*79
$GPGSV,3,2,09,31,23,314,34,14,19,256,24,24,19,170,28,04,18,042,28*7A
$GPGSV,3,3,09,09,16,162,22*4B
$GPRMC,141635.000,A,4909.8858,N,02016.7949,E,0.25,62.38,040908,,*35
$GPGGA,141636.000,4909.8857,N,02016.7949,E,1,08,0.9,863.8,M,41.8,M,,0000*52
$GPGSA,A,3,02,12,09,24,29,31,14,04,,,,,1.9,0.9,1.7*33
$GPGSV,3,1,09,30,75,304,20,12,55,096,40,29,54,232,24,02,43,080,43*7B
$GPGSV,3,2,09,31,23,314,29,14,19,256,25,24,19,170,28,04,18,042,28*77
$GPGSV,3,3,09,09,16,162,21*48
$GPRMC,141636.000,A,4909.8857,N,02016.7949,E,0.18,171.02,040908,,*0D
$GPGGA,141637.000,4909.8857,N,02016.7949,E,1,08,0.9,864.2,M,41.8,M,,0000*5E
$GPGSA,A,3,02,12,09,24,29,31,14,04,,,,,1.9,0.9,1.7*33
$GPGSV,3,1,09,30,75,304,18,12,55,096,43,29,54,232,24,02,43,080,43*73
$GPGSV,3,2,09,31,23,314,28,14,19,256,25,24,19,170,28,04,18,042,28*76
$GPGSV,3,3,09,09,16,162,21*48
$GPRMC,141637.000,A,4909.8857,N,02016.7949,E,0.15,65.75,040908,,*35
$GPGGA,141638.000,4909.8857,N,02016.7949,E,1,09,0.9,864.5,M,41.8,M,,0000*57
$GPGSA,A,3,02,12,09,24,30,29,31,14,04,,,,1.6,0.9,1.3*3B
$GPGSV,3,1,09,30,75,304,19,12,55,096,42,29,54,232,17,02,43,080,35*72
$GPGSV,3,2,09,31,23,314,30,14,19,256,25,24,19,170,28,04,18,042,28*7F
$GPGSV,3,3,09,09,16,162,22*4B
$GPRMC,141638.000,A,4909.8857,N,02016.7949,E,0.27,263.58,040908,,*00
$GPGGA,141639.000,4909.8857,N,02016.7948,E,1,09,0.9,864.8,M,41.8,M,,0000*5A
$GPGSA,A,3,02,12,09,24,30,29,31,14,04,,,,1.6,0.9,1.3*3B
$GPGSV,3,1,09,30,75,304,20,12,55,096,42,29,54,232,15,02,43,080,35*7A
$GPGSV,3,2,09,31,23,314,31,14,19,256,25,24,19,170,28,04,18,042,29*7F
$GPGSV,3,3,09,09,16,162,22*4B
$GPRMC,141639.000,A,4909.8857,N,02016.7948,E,0.05,347.10,040908,,*0B
$GPGGA,141640.000,4909.8857,N,02016.7951,E,1,09,0.9,864.4,M,41.8,M,,0000*50
$GPGSA,A,3,02,12,09,24,30,29,31,14,04,,,,1.6,0.9,1.3*3B
$GPGSV,3,1,09,30,76,304,20,29,54,232,16,12,54,096,42,02,43,079,36*7E
$GPGSV,3,2,09,31,23,314,31,24,19,170,28,14,19,255,25,04,18,042,29*7C
$GPGSV,3,3,09,09,16,162,22*4B
$GPRMC,141640.000,A,4909.8857,N,02016.7951,E,0.29,82.20,040908,,*3A
$GPGGA,141641.000,4909.8857,N,02016.7953,E,1,09,0.9,864.4,M,41.8,M,,0000*53
$GPGSA,A,3,02,12,09,24,30,29,31,14,04,,,,1.6,0.9,1.3*3B
$GPGSV,3,1,09,30,76,304,20,29,54,232,18,12,54,096,42,02,43,079,37*71
$GPGSV,3,2,09,31,23,314,31,24,19,170,28,14,19,255,25,04,18,042,29*7C
$GPGSV,3,3,09,09,16,162,23*4A
$GPRMC,141641.000,A,4909.8857,N,02016.7953,E,0.28,65.99,040908,,*33
$GPGGA,141642.000,4909.8857,N,02016.7954,E,1,09,0.9,864.7,M,41.8,M,,0000*54
$GPGSA,A,3,02,12,09,24,30,29,31,14,04,,,,1.6,0.9,1.3*3B
$GPGSV,3,1,09,30,76,304,20,29,54,232,18,12,54,096,42,02,43,079,37*71
$GPGSV,3,2,09,31,23,314,31,24,19,170,28,14,19,255,25,04,18,042,29*7C
$GPGSV,3,3,09,09,16,162,23*4A
$GPRMC,141642.000,A,4909.8857,N,02016.7954,E,0.18,130.71,040908,,*03
$GPGGA,141643.000,4909.8857,N,02016.7955,E,1,09,0.9,864.6,M,41.8,M,,0000*55
$GPGSA,A,3,02,12,09,24,30,29,31,14,04,,,,1.6,0.9,1.3*3B
$GPGSV,3,1,09,30,76,304,20,29,54,232,18,12,54,096,42,02,43,079,38*7E
$GPGSV,3,2,09,31,23,314,31,24,19,170,28,14,19,255,26,04,18,042,29*7F
$GPGSV,3,3,09,09,16,162,23*4A
$GPRMC,141643.000,A,4909.8857,N,02016.7955,E,0.16,347.22,040908,,*09
$GPGGA,141644.000,4909.8857,N,02016.7955,E,1,08,0.9,864.6,M,41.8,M,,0000*53
$GPGSA,A,3,02,12,09,24,30,31,14,04,,,,,1.7,0.9,1.5*37
$GPGSV,3,1,09,30,76,304,20,29,54,232,18,12,54,096,42,02,43,079,38*7E
$GPGSV,3,2,09,31,23,314,31,24,19,170,28,14,19,255,26,04,18,042,27*71
$GPGSV,3,3,09,09,16,162,23*4A
$GPRMC,141644.000,A,4909.8857,N,02016.7955,E,0.06,141.56,040908,,*08
$GPGGA,141645.000,4909.8856,N,02016.7953,E,1,09,0.9,865.6,M,41.8,M,,0000*55
$GPGSA,A,3,02,12,09,24,30,29,31,14,04,,,,1.6,0.9,1.3*3B
$GPGSV,3,1,09,30,76,304,20,29,54,232,18,12,54,096,42,02,43,079,38*7E
$GPGSV,3,2,09,31,23,314,36,24,19,170,27,14,19,255,26,04,18,042,25*7B
$GPGSV,3,3,09,09,16,162,23*4A
$GPRMC,141645.000,A,4909.8856,N,02016.7953,E,0.23,218.88,040908,,*05
$GPGGA,141646.000,4909.8856,N,02016.7953,E,1,09,0.9,866.0,M,41.8,M,,0000*53
$GPGSA,A,3,02,12,09,24,30,29,31,14,04,,,,1.6,0.9,1.3*3B
$GPGSV,3,1,09,30,76,304,20,29,54,232,18,12,54,096,42,02,43,079,38*7E
$GPGSV,3,2,09,31,23,314,35,24,19,170,27,14,19,255,26,04,18,042,25*78
$GPGSV,3,3,09,09,16,162,23*4A
$GPRMC,141646.000,A,4909.8856,N,02016.7953,E,0.10,161.76,040908,,*0A
$GPGGA,141647.000,4909.8857,N,02016.7953,E,1,09,0.9,866.6,M,41.8,M,,0000*55
$GPGSA,A,3,02,12,09,24,30,29,31,14,04,,,,1.6,0.9,1.3*3B
$GPGSV,3,1,09,30,76,304,20,29,54,232,18,12,54,096,42,02,43,079,38*7E
$GPGSV,3,2,09,31,23,314,35,24,19,170,27,14,19,255,25,04,18,042,26*78
$GPGSV,3,3,09,09,16,162,22*4B
$GPRMC,141647.000,A,4909.8857,N,02016.7953,E,0.27,8.22,040908,,*01
$GPGGA,141648.000,4909.8857,N,02016.7954,E,1,08,0.9,866.6,M,41.8,M,,0000*5C
$GPGSA,A,3,02,12,24,30,29,31,14,04,,,,,1.7,0.9,1.4*34
$GPGSV,3,1,09,30,76,304,25,29,54,232,18,12,54,096,42,02,43,079,38*7B
$GPGSV,3,2,09,31,23,314,35,24,19,170,20,14,19,255,25,04,18,042,26*7F
$GPGSV,3,3,09,09,16,162,12*48
$GPRMC,141648.000,A,4909.8857,N,02016.7954,E,0.47,29.62,040908,,*38
$GPGGA,141649.000,4909.8859,N,02016.7956,E,1,08,0.9,866.7,M,41.8,M,,0000*50
$GPGSA,A,3,02,12,24,30,29,31,14,04,,,,,1.7,0.9,1.4*34
$GPGSV,3,1,09,30,76,304,26,29,54,232,18,12,54,096,42,02,43,079,38*78
$GPGSV,3,2,09,31,23,314,35,24,19,170,23,14,19,255,25,04,18,042,25*7F
$GPGSV,3,3,09,09,16,162,*4B
$GPRMC,141649.000,A,4909.8859,N,02016.7956,E,0.43,8.54,040908,,*07
$GPGGA,141650.000,4909.8861,N,02016.7957,E,1,09,0.9,867.1,M,41.8,M,,0000*54
$GPGSA,A,3,02,12,09,24,30,29,31,14,04,,,,1.6,0.9,1.3*3B
$GPGSV,3,1,09,30,76,304,26,29,54,232,22,12,54,096,41,02,43,079,38*72
$GPGSV,3,2,09,31,23,314,34,24,19,170,23,14,19,255,25,04,18,042,26*7D
$GPGSV,3,3,09,09,16,162,20*49
$GPRMC,141650.000,A,4909.8861,N,02016.7957,E,0.30,25.76,040908,,*3E
$GPGGA,141651.000,4909.8862,N,02016.7957,E,1,09,0.9,867.8,M,41.8,M,,0000*5F
$GPGSA,A,3,02,12,09,24,30,29,31,14,04,,,,1.6,0.9,1.3*3B
$GPGSV,3,1,09,30,76,304,25,29,54,232,26,12,54,096,41,02,43,079,38*75
$GPGSV,3,2,09,31,23,314,29,24,19,170,23,14,19,255,25,04,18,042,26*71
$GPGSV,3,3,09,09,16,162,22*4B
$GPRMC,141651.000,A,4909.8862,N,02016.7957,E,0.42,54.36,040908,,*3B
$GPGGA,141652.000,4909.8862,N,02016.7956,E,1,09,0.9,868.5,M,41.8,M,,0000*5F
$GPGSA,A,3,02,12,09,24,30,29,31,14,04,,,,1.6,0.9,1.3*3B
$GPGSV,3,1,09,30,76,304,14,29,54,232,26,12,54,096,41,02,43,079,38*77
$GPGSV,3,2,09,31,23,314,25,24,19,170,23,14,19,255,24,04,18,042,25*7F
$GPGSV,3,3,09,09,16,162,22*4B
$GPRMC,141652.000,A,4909.8862,N,02016.7956,E,0.09,151.42,040908,,*01
$GPGGA,141653.000,4909.8862,N,02016.7954,E,1,08,1.0,869.4,M,41.8,M,,0000*55
$GPGSA,A,3,02,12,09,24,30,29,31,04,,,,,1.7,1.0,1.4*30
$GPGSV,3,1,09,30,76,304,18,29,54,232,26,12,54,096,41,02,43,079,39*7A
$GPGSV,3,2,09,31,23,314,28,24,19,170,23,14,19,255,18,04,18,042,25*7D
$GPGSV,3,3,09,09,16,162,22*4B
$GPRMC,141653.000,A,4909.8862,N,02016.7954,E,0.46,351.25,040908,,*0A
$GPGGA,141654.000,4909.8865,N,02016.7953,E,1,09,0.9,870.5,M,41.8,M,,0000*52
$GPGSA,A,3,02,12,09,24,30,29,31,14,04,,,,1.6,0.9,1.3*3B
$GPGSV,3,1,09,30,76,304,22,29,54,232,26,12,54,096,41,02,43,079,39*73
$GPGSV,3,2,09,31,23,314,31,24,19,170,23,14,19,255,12,04,18,042,25*7F
$GPGSV,3,3,09,09,16,162,22*4B
$GPRMC,141654.000,A,4909.8865,N,02016.7953,E,0.40,11.41,040908,,*3E
$GPGGA,141655.000,4909.8865,N,02016.7954,E,1,08,0.9,870.7,M,41.8,M,,0000*57
$GPGSA,A,3,02,12,24,30,29,31,14,04,,,,,1.7,0.9,1.4*34
$GPGSV,3,1,09,30,76,304,28,29,54,232,26,12,54,096,41,02,43,079,39*79
$GPGSV,3,2,09,31,23,314,32,24,19,170,19,14,19,255,15,04,18,042,25*72
$GPGSV,3,3,09,09,16,162,13*49
$GPRMC,141655.000,A,4909.8865,N,02016.7954,E,0.34,25.44,040908,,*39
$GPGGA,141656.000,4909.8866,N,02016.7955,E,1,08,0.9,870.7,M,41.8,M,,0000*56
$GPGSA,A,3,02,12,24,30,29,31,14,04,,,,,1.7,0.9,1.4*34
$GPGSV,3,1,09,30,76,304,28,29,54,232,26,12,54,096,41,02,43,079,39*79
$GPGSV,3,2,09,31,23,314,28,24,19,170,20,14,19,255,14,04,18,042,25*72
$GPGSV,3,3,09,09,16,162,11*4B
$GPRMC,141656.000,A,4909.8866,N,02016.7955,E,0.28,339.91,040908,,*03
$GPGGA,141657.000,4909.8865,N,02016.7958,E,1,08,0.9,869.3,M,41.8,M,,0000*55
$GPGSA,A,3,02,12,24,30,29,31,14,04,,,,,1.7,0.9,1.4*34
$GPGSV,3,1,09,30,76,304,27,29,54,232,26,12,54,096,41,02,43,079,39*76
$GPGSV,3,2,09,31,23,314,25,24,19,170,19,14,19,255,14,04,18,042,25*75
$GPGSV,3,3,09,09,16,162,12*48
$GPRMC,141657.000,A,4909.8865,N,02016.7958,E,0.42,342.02,040908,,*06
$GPGGA,141658.000,4909.8865,N,02016.7961,E,1,08,0.9,867.7,M,41.8,M,,0000*5A
$GPGSA,A,3,02,12,24,30,29,31,14,04,,,,,1.7,0.9,1.4*34
$GPGSV,3,1,09,30,76,304,27,29,54,232,26,12,54,096,41,02,43,079,38*77
$GPGSV,3,2,09,31,23,314,26,24,19,170,19,14,19,255,14,04,18,042,24*77
$GPGSV,3,3,09,09,16,162,*4B
$GPRMC,141658.000,A,4909.8865,N,02016.7961,E,1.11,342.45,040908,,*07
$GPGGA,141659.000,4909.8864,N,02016.7966,E,1,08,0.9,866.0,M,41.8,M,,0000*5B
$GPGSA,A,3,02,12,24,30,29,31,14,04,,,,,1.7,0.9,1.4*34
$GPGSV,3,1,09,30,76,304,27,29,54,232,26,12,54,096,41,02,43,079,38*77
$GPGSV,3,2,09,31,23,314,27,24,19,170,19,14,19,255,14,04,18,042,24*76
$GPGSV,3,3,09,09,16,162,*4B
$GPRMC,141659.000,A,4909.8864,N,02016.7966,E,0.46,29.15,040908,,*38
$GPGGA,141700.000,4909.8862,N,02016.7970,E,1,08,0.9,864.3,M,41.8,M,,0000*56
$GPGSA,A,3,02,12,24,30,29,31,14,04,,,,,1.7,0.9,1.4*34
$GPGSV,3,1,09,30,76,304,26,29,54,232,26,12,54,096,41,02,43,079,38*76
$GPGSV,3,2,09,31,23,314,31,24,19,170,19,14,19,255,14,04,18,042,15*73
$GPGSV,3,3,09,09,16,162,*4B
$GPRMC,141700.000,A,4909.8862,N,02016.7970,E,0.15,127.38,040908,,*02
$GPGGA,141701.000,4909.8860,N,02016.7974,E,1,08,0.9,863.1,M,41.8,M,,0000*54
$GPGSA,A,3,02,12,24,30,29,31,14,04,,,,,1.7,0.9,1.4*34
$GPGSV,3,1,09,30,76,304,26,29,54,232,26,12,54,096,41,02,43,079,38*76
$GPGSV,3,2,09,31,23,314,35,24,19,170,20,14,19,255,14,04,18,042,16*7E
$GPGSV,3,3,09,09,16,162,15*4F
$GPRMC,141701.000,A,4909.8860,N,02016.7974,E,0.21,70.34,040908,,*3D
$GPGGA,141702.000,4909.8856,N,02016.7976,E,1,08,0.9,861.3,M,41.8,M,,0000*50
$GPGSA,A,3,02,12,24,30,29,31,14,04,,,,,1.7,0.9,1.4*34
$GPGSV,3,1,09,30,76,304,26,29,54,232,26,12,54,096,41,02,43,079,38*76
$GPGSV,3,2,09,31,23,314,34,24,19,170,22,14,19,255,14,04,18,042,17*7C
$GPGSV,3,3,09,09,16,162,14*4E
$GPRMC,141702.000,A,4909.8856,N,02016.7976,E,0.61,192.17,040908,,*01
$GPGGA,141703.000,4909.8853,N,02016.7979,E,1,08,0.9,859.4,M,41.8,M,,0000*57
$GPGSA,A,3,02,12,24,30,29,31,14,04,,,,,1.7,0.9,1.4*34
$GPGSV,3,1,09,30,76,304,27,29,54,232,26,12,54,096,41,02,43,079,38*77
$GPGSV,3,2,09,31,23,314,34,24,19,170,24,14,19,255,15,04,18,042,17*7B
$GPGSV,3,3,09,09,16,162,15*4F
$GPRMC,141703.000,A,4909.8853,N,02016.7979,E,0.33,181.86,040908,,*07
$GPGGA,141704.000,4909.8850,N,02016.7981,E,1,08,0.9,857.9,M,41.8,M,,0000*57
$GPGSA,A,3,02,12,24,30,29,31,14,04,,,,,1.7,0.9,1.4*34
$GPGSV,3,1,09,30,76,304,27,29,54,232,27,12,54,096,40,02,43,079,38*77
$GPGSV,3,2,09,31,23,314,34,24,19,170,23,14,19,255,15,04,18,042,17*7C
$GPGSV,3,3,09,09,16,162,*4B
$GPRMC,141704.000,A,4909.8850,N,02016.7981,E,0.42,146.89,040908,,*06
$GPGGA,141705.000,4909.8847,N,02016.7983,E,1,08,0.9,857.0,M,41.8,M,,0000*5B
$GPGSA,A,3,02,12,24,30,29,31,14,04,,,,,1.7,0.9,1.4*34
$GPGSV,3,1,09,30,76,304,27,29,54,232,27,12,54,096,40,02,43,079,37*78
$GPGSV,3,2,09,31,23,314,34,24,19,170,23,14,19,255,16,04,18,042,18*70
$GPGSV,3,3,09,09,16,162,17*4D
$GPRMC,141705.000,A,4909.8847,N,02016.7983,E,0.55,154.74,040908,,*04
$GPGGA,141706.000,4909.8846,N,02016.7986,E,1,07,1.2,856.0,M,41.8,M,,0000*58
$GPGSA,A,3,02,12,24,30,29,31,14,,,,,,2.1,1.2,1.8*33
$GPGSV,3,1,09,30,76,304,27,29,54,232,27,12,54,096,40,02,43,079,37*78
$GPGSV,3,2,09,31,23,314,34,24,19,170,23,14,19,255,16,04,18,042,18*70
$GPGSV,3,3,09,09,16,162,17*4D
$GPRMC,141706.000,A,4909.8846,N,02016.7986,E,0.41,64.03,040908,,*34
$GPGGA,141707.000,4909.8845,N,02016.7988,E,1,07,1.2,855.4,M,41.8,M,,0000*53
$GPGSA,A,3,02,12,24,30,29,31,14,,,,,,2.1,1.2,1.8*33
$GPGSV,3,1,09,30,76,304,27,29,54,232,27,12,54,096,40,02,43,079,37*78
$GPGSV,3,2,09,31,23,314,34,24,19,170,23,14,19,255,16,04,18,042,19*71
$GPGSV,3,3,09,09,16,162,19*43
$GPRMC,141707.000,A,4909.8845,N,02016.7988,E,0.23,89.76,040908,,*3D
$GPGGA,141708.000,4909.8844,N,02016.7991,E,1,09,0.9,854.6,M,41.8,M,,0000*52
$GPGSA,A,3,02,12,09,24,30,29,31,14,04,,,,1.6,0.9,1.3*3B
$GPGSV,3,1,09,30,76,304,27,29,54,232,27,12,54,096,40,02,43,079,37*78
$GPGSV,3,2,09,31,23,314,34,24,19,170,22,14,19,255,16,04,18,042,19*70
$GPGSV,3,3,09,09,16,162,21*48
$GPRMC,141708.000,A,4909.8844,N,02016.7991,E,0.54,57.78,040908,,*36
$GPGGA,141709.000,4909.8844,N,02016.7992,E,1,09,0.9,854.5,M,41.8,M,,0000*53
$GPGSA,A,3,02,12,09,24,30,29,31,14,04,,,,1.6,0.9,1.3*3B
$GPGSV,3,1,09,30,76,304,27,29,54,232,27,12,54,096,40,02,43,079,37*78
$GPGSV,3,2,09,31,23,314,34,24,19,170,22,14,19,255,16,04,18,042,20*7A
$GPGSV,3,3,09,09,16,162,21*48
$GPRMC,141709.000,A,4909.8844,N,02016.7992,E,0.40,149.35,040908,,*06
$GPGGA,141710.000,4909.8844,N,02016.7992,E,1,09,0.9,855.1,M,41.8,M,,0000*5E
$GPGSA,A,3,02,12,09,24,30,29,31,14,04,,,,1.6,0.9,1.3*3B
$GPGSV,3,1,09,30,76,304,27,29,54,232,27,12,54,096,40,02,43,079,37*78
$GPGSV,3,2,09,31,23,314,34,24,19,170,22,14,19,255,17,04,18,042,20*7B
$GPGSV,3,3,09,09,16,162,21*48
$GPRMC,141710.000,A,4909.8844,N,02016.7992,E,0.37,92.32,040908,,*3E
$GPGGA,141711.000,4909.8846,N,02016.7993,E,1,09,0.9,855.7,M,41.8,M,,0000*5A
$GPGSA,A,3,02,12,09,24,30,29,31,14,04,,,,1.6,0.9,1.3*3B
$GPGSV,3,1,09,30,76,304,26,29,54,232,28,12,54,096,40,02,43,079,37*76
$GPGSV,3,2,09,31,23,314,34,24,19,170,22,14,19,255,17,04,18,042,20*7B
$GPGSV,3,3,09,09,16,162,21*48
$GPRMC,141711.000,A,4909.8846,N,02016.7993,E,0.92,23.36,040908,,*3D
$GPGGA,141712.000,4909.8848,N,02016.7992,E,1,09,0.9,856.1,M,41.8,M,,0000*53
$GPGSA,A,3,02,12,09,24,30,29,31,14,04,,,,1.6,0.9,1.3*3B
$GPGSV,3,1,09,30,76,304,26,29,54,232,28,12,54,096,40,02,43,079,36*77
$GPGSV,3,2,09,31,23,314,34,24,19,170,22,14,19,255,18,04,18,042,20*74
$GPGSV,3,3,09,09,16,162,21*48
$GPRMC,141712.000,A,4909.8848,N,02016.7992,E,0.50,1.45,040908,,*0B
$GPGGA,141713.000,4909.8850,N,02016.7992,E,1,09,0.9,855.7,M,41.8,M,,0000*5E
$GPGSA,A,3,02,12,09,24,30,29,31,14,04,,,,1.6,0.9,1.3*3B
$GPGSV,3,1,09,30,76,304,26,29,54,232,28,12,54,096,40,02,43,079,37*76
$GPGSV,3,2,09,31,23,314,34,24,19,170,22,14,19,255,21,04,18,042,21*7F
$GPGSV,3,3,09,09,16,162,20*49
$GPRMC,141713.000,A,4909.8850,N,02016.7992,E,0.19,357.23,040908,,*0E
$GPGGA,141714.000,4909.8849,N,02016.7993,E,1,09,0.9,854.7,M,41.8,M,,0000*51
$GPGSA,A,3,02,12,09,24,30,29,31,14,04,,,,1.6,0.9,1.3*3B
$GPGSV,3,1,09,30,76,304,23,29,54,232,28,12,54,096,40,02,43,079,37*73
$GPGSV,3,2,09,31,23,314,35,24,19,170,21,14,19,255,27,04,18,042,20*7A
$GPGSV,3,3,09,09,16,162,21*48
$GPRMC,141714.000,A,4909.8849,N,02016.7993,E,0.09,257.00,040908,,*01
$GPGGA,141715.000,4909.8849,N,02016.7992,E,1,09,0.9,854.7,M,41.8,M,,0000*51
$GPGSA,A,3,02,12,09,24,30,29,31,14,04,,,,1.6,0.9,1.3*3B
$GPGSV,3,1,09,30,76,304,23,29,54,232,28,12,54,096,40,02,43,079,37*73
$GPGSV,3,2,09,31,23,314,35,24,19,170,21,14,19,255,26,04,18,042,20*7B
$GPGSV,3,3,09,09,16,162,22*4B
$GPRMC,141715.000,A,4909.8849,N,02016.7992,E,0.14,46.28,040908,,*35
$GPGGA,141716.000,4909.8850,N,02016.7991,E,1,09,0.9,855.2,M,41.8,M,,0000*5D
$GPGSA,A,3,02,12,09,24,30,29,31,14,04,,,,1.6,0.9,1.3*3B
$GPGSV,3,1,09,30,76,305,23,29,54,232,28,12,54,097,40,02,43,079,37*73
$GPGSV,3,2,09,31,24,314,35,24,20,170,21,14,19,255,26,04,18,042,20*76
$GPGSV,3,3,09,09,16,162,25*4C
$GPRMC,141716.000,A,4909.8850,N,02016.7991,E,0.33,192.31,040908,,*08
$GPGGA,141717.000,4909.8852,N,02016.7989,E,1,09,0.9,856.4,M,41.8,M,,0000*52
$GPGSA,A,3,02,12,09,24,30,29,31,14,04,,,,1.6,0.9,1.3*3B
$GPGSV,3,1,09,30,76,305,23,29,54,232,28,12,54,097,41,02,43,079,38*7D
$GPGSV,3,2,09,31,24,314,35,24,20,170,21,14,19,255,26,04,18,042,20*76
$GPGSV,3,3,09,09,16,162,24*4D
$GPRMC,141717.000,A,4909.8852,N,02016.7989,E,0.17,128.69,040908,,*08
$GPGGA,141718.000,4909.8853,N,02016.7988,E,1,08,0.9,857.3,M,41.8,M,,0000*5A
$GPGSA,A,3,02,12,09,24,29,31,14,04,,,,,1.9,0.9,1.7*33
$GPGSV,3,1,09,30,76,305,20,29,54,232,28,12,54,097,48,02,43,079,42*7A
$GPGSV,3,2,09,31,24,314,28,24,20,170,21,14,19,255,26,04,18,042,20*7A
$GPGSV,3,3,09,09,16,162,23*4A
$GPRMC,141718.000,A,4909.8853,N,02016.7988,E,0.63,190.78,040908,,*07
$GPGGA,141719.000,4909.8852,N,02016.7988,E,1,08,0.9,857.7,M,41.8,M,,0000*5E
$GPGSA,A,3,02,12,24,30,29,31,14,04,,,,,1.7,0.9,1.4*34
$GPGSV,3,1,09,30,76,305,20,29,54,232,28,12,54,097,47,02,43,079,47*70
$GPGSV,3,2,09,31,24,314,25,24,20,170,21,14,19,255,26,04,18,042,23*74
$GPGSV,3,3,09,09,16,162,23*4A
$GPRMC,141719.000,A,4909.8852,N,02016.7988,E,0.37,166.47,040908,,*03
$GPGGA,141720.000,4909.8851,N,02016.7987,E,1,08,0.9,858.1,M,41.8,M,,0000*51
$GPGSA,A,3,02,12,24,30,29,31,14,04,,,,,1.7,0.9,1.4*34
$GPGSV,3,1,09,30,76,305,23,29,54,232,31,12,54,097,46,02,43,079,47*7A
$GPGSV,3,2,09,31,24,314,24,24,20,170,21,14,19,255,26,04,18,042,25*73
$GPGSV,3,3,09,09,16,162,*4B
$GPRMC,141720.000,A,4909.8851,N,02016.7987,E,0.39,298.95,040908,,*06
$GPGGA,141721.000,4909.8851,N,02016.7986,E,1,08,0.9,858.6,M,41.8,M,,0000*56
$GPGSA,A,3,02,12,24,30,29,31,14,04,,,,,1.7,0.9,1.4*34
$GPGSV,3,1,09,30,76,305,23,29,54,232,31,12,54,097,46,02,43,079,47*7A
$GPGSV,3,2,09,31,24,314,24,24,20,170,21,14,19,255,25,04,18,042,26*73
$GPGSV,3,3,09,09,16,162,17*4D
$GPRMC,141721.000,A,4909.8851,N,02016.7986,E,0.54,140.21,040908,,*04
$GPGGA,141722.000,4909.8853,N,02016.7985,E,1,08,0.9,859.4,M,41.8,M,,0000*57
$GPGSA,A,3,02,12,24,30,29,31,14,04,,,,,1.7,0.9,1.4*34
$GPGSV,3,1,09,30,76,305,24,29,54,232,31,12,54,097,46,02,43,079,48*72
$GPGSV,3,2,09,31,24,314,25,24,20,170,19,14,19,255,25,04,18,042,26*79
$GPGSV,3,3,09,09,16,162,15*4F
$GPRMC,141722.000,A,4909.8853,N,02016.7985,E,0.49,338.22,040908,,*04
$GPGGA,141723.000,4909.8856,N,02016.7984,E,1,08,0.9,860.2,M,41.8,M,,0000*5E
$GPGSA,A,3,02,12,24,30,29,31,14,04,,,,,1.7,0.9,1.4*34
$GPGSV,3,1,09,30,76,305,24,29,54,232,31,12,54,097,46,02,43,079,48*72
$GPGSV,3,2,09,31,24,314,25,24,20,170,15,14,19,255,25,04,18,042,26*75
$GPGSV,3,3,09,09,16,162,14*4E
$GPRMC,141723.000,A,4909.8856,N,02016.7984,E,0.30,31.96,040908,,*3A
$GPGGA,141724.000,4909.8859,N,02016.7982,E,1,08,0.9,861.0,M,41.8,M,,0000*53
$GPGSA,A,3,02,12,24,30,29,31,14,04,,,,,1.7,0.9,1.4*34
$GPGSV,3,1,09,30,76,305,24,29,54,232,31,12,54,097,45,02,43,079,47*7E
$GPGSV,3,2,09,31,24,314,25,24,20,170,15,14,19,255,25,04,18,042,26*75
$GPGSV,3,3,09,09,16,162,13*49
$GPRMC,141724.000,A,4909.8859,N,02016.7982,E,0.64,349.37,040908,,*02
$GPGGA,141725.000,4909.8860,N,02016.7982,E,1,08,0.9,861.9,M,41.8,M,,0000*51
$GPGSA,A,3,02,12,24,30,29,31,14,04,,,,,1.7,0.9,1.4*34
$GPGSV,3,1,09,30,76,305,24,29,54,232,30,12,54,097,45,02,43,079,47*7F
$GPGSV,3,2,09,31,24,314,25,24,20,170,16,14,19,255,25,04,18,042,26*76
$GPGSV,3,3,09,09,16,162,12*48
$GPRMC,141725.000,A,4909.8860,N,02016.7982,E,0.26,54.41,040908,,*31
$GPGGA,141726.000,4909.8862,N,02016.7981,E,1,08,0.9,862.6,M,41.8,M,,0000*5F
$GPGSA,A,3,02,12,24,30,29,31,14,04,,,,,1.7,0.9,1.4*34
$GPGSV,3,1,09,30,76,305,24,29,54,232,22,12,54,097,46,02,43,079,47*7F
$GPGSV,3,2,09,31,24,314,25,24,20,170,16,14,19,255,25,04,18,042,26*76
$GPGSV,3,3,09,09,16,162,*4B
$GPRMC,141726.000,A,4909.8862,N,02016.7981,E,0.20,7.41,040908,,*03
$GPGGA,141727.000,4909.8864,N,02016.7980,E,1,08,0.9,863.7,M,41.8,M,,0000*59
$GPGSA,A,3,02,12,24,30,29,31,14,04,,,,,1.7,0.9,1.4*34
$GPGSV,3,1,09,30,76,305,17,29,54,232,25,12,54,097,46,02,43,079,47*78
$GPGSV,3,2,09,31,24,314,25,24,20,170,17,14,19,255,25,04,18,042,26*77
$GPGSV,3,3,09,09,16,162,12*48
$GPRMC,141727.000,A,4909.8864,N,02016.7980,E,0.49,345.57,040908,,*08
$GPGGA,141728.000,4909.8865,N,02016.7978,E,1,08,0.9,864.6,M,41.8,M,,0000*56
$GPGSA,A,3,02,12,24,30,29,31,14,04,,,,,1.7,0.9,1.4*34
$GPGSV,3,1,09,30,76,305,21,29,54,232,32,12,54,097,46,02,43,079,47*7B
$GPGSV,3,2,09,31,24,314,25,24,20,170,18,14,19,255,25,04,18,042,25*7B
$GPGSV,3,3,09,09,16,162,12*48
$GPRMC,141728.000,A,4909.8865,N,02016.7978,E,0.51,341.55,040908,,*0E
$GPGGA,141729.000,4909.8865,N,02016.7976,E,1,08,0.9,865.5,M,41.8,M,,0000*5B
$GPGSA,A,3,02,12,24,30,29,31,14,04,,,,,1.7,0.9,1.4*34
$GPGSV,3,1,09,30,76,305,20,29,54,232,31,12,54,097,46,02,43,079,47*79
$GPGSV,3,2,09,31,24,314,24,24,20,170,18,14,19,255,25,04,18,042,25*7A
$GPGSV,3,3,09,09,16,162,13*49
$GPRMC,141729.000,A,4909.8865,N,02016.7976,E,0.05,98.11,040908,,*37
$GPGGA,141730.000,4909.8864,N,02016.7976,E,1,08,0.9,865.7,M,41.8,M,,0000*50
$GPGSA,A,3,02,12,24,30,29,31,14,04,,,,,1.7,0.9,1.4*34
$GPGSV,3,1,09,30,76,305,19,29,54,232,30,12,54,097,47,02,43,079,47*73
$GPGSV,3,2,09,31,24,314,18,24,20,170,20,14,19,255,22,04,18,042,25*79
$GPGSV,3,3,09,09,16,162,12*48
$GPRMC,141730.000,A,4909.8864,N,02016.7976,E,0.52,2.08,040908,,*07
$GPGGA,141731.000,4909.8863,N,02016.7976,E,1,08,0.9,865.5,M,41.8,M,,0000*54
$GPGSA,A,3,02,12,24,30,29,31,14,04,,,,,1.7,0.9,1.4*34
$GPGSV,3,1,09,30,76,305,19,29,54,232,29,12,54,097,47,02,43,079,47*7B
$GPGSV,3,2,09,31,24,314,20,24,20,170,26,14,19,255,19,04,18,042,25*7C
$GPGSV,3,3,09,09,16,162,12*48
$GPRMC,141731.000,A,4909.8863,N,02016.7976,E,0.04,132.95,040908,,*04
$GPGGA,141732.000,4909.8863,N,02016.7976,E,1,07,1.0,866.0,M,41.8,M,,0000*56
$GPGSA,A,3,02,12,24,29,31,14,04,,,,,,2.1,1.0,1.8*36
$GPGSV,3,1,09,30,76,305,18,29,54,232,29,12,54,097,48,02,43,079,47*75
$GPGSV,3,2,09,31,24,314,20,24,20,170,25,14,19,255,20,04,18,042,22*72
$GPGSV,3,3,09,09,16,162,11*4B
$GPRMC,141732.000,A,4909.8863,N,02016.7976,E,0.52,11.67,040908,,*39
$GPGGA,141733.000,4909.8861,N,02016.7977,E,1,08,0.9,865.6,M,41.8,M,,0000*56
$GPGSA,A,3,02,12,24,30,29,31,14,04,,,,,1.7,0.9,1.4*34
$GPGSV,3,1,09,30,76,305,18,29,54,232,29,12,54,097,48,02,43,079,46*74
$GPGSV,3,2,09,31,24,314,20,24,20,170,25,14,19,255,20,04,18,042,20*70
$GPGSV,3,3,09,09,16,162,*4B
$GPRMC,141733.000,A,4909.8861,N,02016.7977,E,0.18,309.69,040908,,*01
$GPGGA,141734.000,4909.8859,N,02016.7976,E,1,08,0.9,865.3,M,41.8,M,,0000*5E
$GPGSA,A,3,02,12,24,30,29,31,14,04,,,,,1.7,0.9,1.4*34
$GPGSV,3,1,09,30,76,305,18,29,54,232,29,12,54,097,48,02,43,079,46*74
$GPGSV,3,2,09,31,24,314,20,24,20,170,25,14,19,255,20,04,18,042,20*70
$GPGSV,3,3,09,09,16,162,22*4B
$GPRMC,141734.000,A,4909.8859,N,02016.7976,E,0.64,321.51,040908,,*06
$GPGGA,141735.000,4909.8856,N,02016.7977,E,1,08,0.9,865.4,M,41.8,M,,0000*56
$GPGSA,A,3,02,12,24,30,29,31,14,04,,,,,1.7,0.9,1.4*34
$GPGSV,3,1,09,30,76,305,18,29,54,232,29,12,54,097,49,02,43,079,46*75
$GPGSV,3,2,09,31,24,314,21,24,20,170,25,14,19,255,20,04,18,042,21*70
$GPGSV,3,3,09,09,16,162,22*4B
$GPRMC,141735.000,A,4909.8856,N,02016.7977,E,0.66,97.94,040908,,*3C
$GPGGA,141736.000,4909.8853,N,02016.7979,E,1,08,0.9,865.8,M,41.8,M,,0000*52
$GPGSA,A,3,02,12,24,30,29,31,14,04,,,,,1.7,0.9,1.4*34
$GPGSV,3,1,09,30,76,305,18,29,54,232,29,12,54,097,49,02,43,079,46*75
$GPGSV,3,2,09,31,24,314,21,24,20,170,24,14,19,255,20,04,18,042,22*72
$GPGSV,3,3,09,09,16,162,21*48
$GPRMC,141736.000,A,4909.8853,N,02016.7979,E,0.34,167.56,040908,,*03
$GPGGA,141737.000,4909.8853,N,02016.7977,E,1,08,0.9,866.3,M,41.8,M,,0000*55
$GPGSA,A,3,02,12,24,30,29,31,14,04,,,,,1.7,0.9,1.4*34
$GPGSV,3,1,09,30,76,305,19,29,54,232,28,12,54,097,49,02,43,079,46*75
$GPGSV,3,2,09,31,24,314,24,24,20,170,20,14,19,255,23,04,18,042,22*70
$GPGSV,3,3,09,09,16,162,18*42
$GPRMC,141737.000,A,4909.8853,N,02016.7977,E,0.13,195.04,040908,,*03
$GPGGA,141738.000,4909.8852,N,02016.7977,E,1,08,0.9,866.4,M,41.8,M,,0000*5C
$GPGSA,A,3,02,12,24,30,29,31,14,04,,,,,1.7,0.9,1.4*34
$GPGSV,3,1,09,30,76,305,25,29,54,232,28,12,54,097,48,02,43,079,47*7A
$GPGSV,3,2,09,31,24,314,29,24,20,170,20,14,19,255,27,04,18,042,25*7E
$GPGSV,3,3,09,09,16,162,20*49
$GPRMC,141738.000,A,4909.8852,N,02016.7977,E,0.30,99.37,040908,,*31
$GPGGA,141739.000,4909.8851,N,02016.7978,E,1,08,0.9,866.2,M,41.8,M,,0000*57
$GPGSA,A,3,02,12,24,30,29,31,14,04,,,,,1.7,0.9,1.4*34
$GPGSV,3,1,09,30,76,305,26,29,54,232,28,12,54,097,48,02,43,079,47*79
$GPGSV,3,2,09,31,24,314,30,24,20,170,20,14,19,255,26,04,18,042,25*77
$GPGSV,3,3,09,09,16,162,19*43
$GPRMC,141739.000,A,4909.8851,N,02016.7978,E,0.95,15.81,040908,,*3A
$GPGGA,141740.000,4909.8853,N,02016.7977,E,1,08,0.9,866.5,M,41.8,M,,0000*53
$GPGSA,A,3,02,12,24,30,29,31,14,04,,,,,1.7,0.9,1.4*34
$GPGSV,3,1,09,30,76,305,26,29,54,232,28,12,54,097,48,02,43,079,46*78
$GPGSV,3,2,09,31,24,314,30,24,20,170,19,14,19,255,26,04,18,042,24*7C
$GPGSV,3,3,09,09,16,162,19*43
$GPRMC,141740.000,A,4909.8853,N,02016.7977,E,0.42,0.05,040908,,*0B
$GPGGA,141741.000,4909.8852,N,02016.7976,E,1,08,0.9,866.4,M,41.8,M,,0000*53
$GPGSA,A,3,02,12,24,30,29,31,14,04,,,,,1.7,0.9,1.4*34
