$GPGGA,154056.000,3624.0962,N,02805.3392,E,1,8,0.97,-6.9,M,33.2,M,,*73
$GPGSA,A,3,12,29,24,02,30,31,14,09,,,,,1.29,0.97,0.85*0A
$GPGSV,4,1,14,30,70,349,26,12,62,077,30,29,53,269,26,39,47,185,*72
$GPGSV,4,2,14,24,42,177,38,02,39,055,37,09,22,168,26,31,18,319,23*7F
$GPGSV,4,3,14,14,12,260,21,27,12,164,,21,12,200,,10,09,112,*77
$GPGSV,4,4,14,04,08,039,,26,06,220,*78
$GPRMC,154056.000,A,3624.0962,N,02805.3392,E,0.17,0.00,040809,,,A*64
$GPGGA,154057.000,3624.0958,N,02805.3409,E,1,8,0.97,-7.5,M,33.2,M,,*73
$GPGSA,A,3,12,29,24,02,30,31,14,09,,,,,1.29,0.97,0.85*0A
$GPGSV,4,1,14,30,70,349,29,12,62,077,30,29,53,269,27,39,47,185,*7C
$GPGSV,4,2,14,24,42,177,38,02,39,055,37,09,22,168,26,31,18,319,25*79
$GPGSV,4,3,14,14,12,260,22,27,12,164,,21,12,200,,10,09,112,*74
$GPGSV,4,4,14,04,08,039,,26,06,220,*78
$GPRMC,154057.000,A,3624.0958,N,02805.3409,E,0.04,0.00,040809,,,A*6B
$GPGGA,154058.000,3624.0951,N,02805.3421,E,1,8,1.04,-8.2,M,33.2,M,,*7C
$GPGSA,A,3,12,29,24,02,30,31,14,09,,,,,1.91,1.04,1.61*09
$GPGSV,4,1,14,30,70,349,28,12,62,077,30,29,53,269,27,39,47,185,*7D
$GPGSV,4,2,14,24,42,177,37,02,39,055,37,09,22,168,21,31,18,319,25*71
$GPGSV,4,3,14,14,12,260,23,27,12,164,,21,12,200,,10,09,112,*75
$GPGSV,4,4,14,04,08,039,,26,06,220,*78
$GPRMC,154058.000,A,3624.0951,N,02805.3421,E,0.10,0.00,040809,,,A*62
$GPGGA,154059.000,3624.0947,N,02805.3422,E,1,8,0.97,-8.6,M,33.2,M,,*76
$GPGSA,A,3,12,29,24,02,30,31,14,09,,,,,1.29,0.97,0.85*0A
$GPGSV,4,1,14,30,70,349,28,12,62,077,29,29,53,269,26,39,47,185,*74
$GPGSV,4,2,14,24,42,177,30,02,39,055,37,09,22,168,18,31,18,319,25*7C
$GPGSV,4,3,14,14,12,260,22,27,12,164,,21,12,200,,10,09,112,*74
$GPGSV,4,4,14,04,08,039,,26,06,220,*78
$GPRMC,154059.000,A,3624.0947,N,02805.3422,E,0.27,0.00,040809,,,A*63
$GPGGA,154100.000,3624.0946,N,02805.3419,E,1,7,1.11,-7.5,M,33.2,M,,*7E
$GPGSA,A,3,12,29,24,02,30,14,09,,,,,,1.42,1.11,0.88*07
$GPGSV,4,1,14,30,70,349,27,12,62,077,28,29,53,269,26,39,47,185,*7A
$GPGSV,4,2,14,24,42,177,39,02,39,055,36,09,22,168,25,31,18,319,*7D
$GPGSV,4,3,14,14,12,260,21,27,12,164,,21,12,200,,10,09,112,*77
$GPGSV,4,4,14,04,08,039,,26,06,220,*78
$GPRMC,154100.000,A,3624.0946,N,02805.3419,E,0.14,0.00,040809,,,A*67
$GPGGA,154101.000,3624.0952,N,02805.3413,E,1,8,0.97,-6.4,M,33.2,M,,*70
$GPGSA,A,3,12,29,24,02,30,31,14,09,,,,,1.29,0.97,0.85*0A
$GPGSV,4,1,14,30,70,349,27,12,62,078,20,29,53,269,26,39,47,185,*7D
$GPGSV,4,2,14,24,42,177,39,02,39,055,36,09,22,168,25,31,18,319,23*7C
$GPGSV,4,3,14,14,12,260,20,27,12,164,,21,12,200,,10,09,112,*76
$GPGSV,4,4,14,04,08,039,,26,06,220,*78
$GPRMC,154101.000,A,3624.0952,N,02805.3413,E,0.04,0.00,040809,,,A*68
$GPGGA,154102.000,3624.0951,N,02805.3408,E,1,8,0.97,-5.7,M,33.2,M,,*7A
$GPGSA,A,3,12,29,24,02,30,31,14,09,,,,,1.29,0.97,0.85*0A
$GPGSV,4,1,14,30,70,349,27,12,62,078,20,29,53,269,25,39,47,185,*7E
$GPGSV,4,2,14,24,42,177,39,02,39,055,36,09,22,168,25,31,18,319,24*7B
$GPGSV,4,3,14,14,12,260,20,27,12,164,,21,12,200,,10,09,112,*76
$GPGSV,4,4,14,04,08,039,,26,06,220,*78
$GPRMC,154102.000,A,3624.0951,N,02805.3408,E,0.06,0.00,040809,,,A*60
$GPGGA,154103.000,3624.0952,N,02805.3403,E,1,8,0.97,-5.6,M,33.2,M,,*72
$GPGSA,A,3,12,29,24,02,30,31,14,09,,,,,1.29,0.97,0.85*0A
$GPGSV,4,1,14,30,70,349,25,12,62,078,22,29,53,269,25,39,47,185,*7E
$GPGSV,4,2,14,24,42,177,39,02,39,055,37,09,22,168,26,31,18,319,24*79
$GPGSV,4,3,14,14,12,260,21,27,12,164,,21,12,200,,10,09,112,*77
$GPGSV,4,4,14,04,08,039,,26,06,220,*78
$GPRMC,154103.000,A,3624.0952,N,02805.3403,E,0.04,0.00,040809,,,A*6B
$GPGGA,154104.000,3624.0954,N,02805.3399,E,1,8,0.97,-4.0,M,33.2,M,,*70
$GPGSA,A,3,12,29,24,02,30,31,14,09,,,,,1.29,0.97,0.85*0A
$GPGSV,4,1,14,30,70,349,25,12,62,078,24,29,53,269,25,24,42,177,39*76
$GPGSV,4,2,14,37,41,189,,02,39,055,37,09,22,168,27,31,18,319,24*72
$GPGSV,4,3,14,14,12,260,21,27,12,164,,21,12,200,,10,09,112,*77
$GPGSV,4,4,14,04,08,039,,26,06,220,*78
$GPRMC,154104.000,A,3624.0954,N,02805.3399,E,0.05,0.00,040809,,,A*6F
$GPGGA,154105.000,3624.0956,N,02805.3397,E,1,8,0.97,-4.9,M,33.2,M,,*74
$GPGSA,A,3,12,29,24,02,30,31,14,09,,,,,1.29,0.97,0.85*0A
$GPGSV,4,1,14,30,70,349,25,12,62,078,25,29,53,269,24,24,42,177,39*76
$GPGSV,4,2,14,37,41,189,,02,39,055,37,09,22,168,28,31,18,319,25*7C
$GPGSV,4,3,14,14,12,260,21,27,12,164,,21,12,200,,10,09,112,*77
$GPGSV,4,4,14,04,08,039,,26,06,220,*78
$GPRMC,154105.000,A,3624.0956,N,02805.3397,E,0.10,0.00,040809,,,A*66
$GPGGA,154106.000,3624.0957,N,02805.3391,E,1,8,0.97,-3.9,M,33.2,M,,*77
$GPGSA,A,3,12,29,24,02,30,31,14,09,,,,,1.29,0.97,0.85*0A
$GPGSV,4,1,14,30,70,349,24,12,62,078,27,29,53,269,25,24,42,177,39*74
$GPGSV,4,2,14,37,41,189,31,02,39,055,38,09,22,168,28,31,18,319,25*71
$GPGSV,4,3,14,14,12,260,20,27,12,164,,21,12,200,,10,09,112,*76
$GPGSV,4,4,14,04,08,039,,26,06,220,*78
$GPRMC,154106.000,A,3624.0957,N,02805.3391,E,0.02,0.00,040809,,,A*61
$GPGGA,154107.000,3624.0955,N,02805.3391,E,1,8,0.97,-3.3,M,33.2,M,,*7E
$GPGSA,A,3,12,29,24,02,30,31,14,09,,,,,1.29,0.97,0.85*0A
$GPGSV,4,1,14,30,70,349,25,12,62,078,27,29,53,269,25,24,42,177,39*75
$GPGSV,4,2,14,37,41,189,32,02,39,055,38,09,22,168,28,31,18,319,24*73
$GPGSV,4,3,14,14,12,260,20,27,12,164,,21,12,200,,10,09,112,*76
$GPGSV,4,4,14,04,08,039,,26,06,220,*78
$GPRMC,154107.000,A,3624.0955,N,02805.3391,E,0.09,0.00,040809,,,A*69
$GPGGA,154108.000,3624.0955,N,02805.3391,E,1,8,0.97,-3.0,M,33.2,M,,*72
$GPGSA,A,3,12,29,24,02,30,31,14,09,,,,,1.29,0.97,0.85*0A
$GPGSV,4,1,14,30,70,349,25,12,62,078,28,29,53,269,26,24,42,177,39*79
$GPGSV,4,2,14,37,41,189,,02,39,055,38,09,22,168,28,31,18,319,23*75
$GPGSV,4,3,14,14,12,260,20,27,12,164,,21,12,200,,10,09,112,*76
$GPGSV,4,4,14,04,08,039,,26,06,220,*78
$GPRMC,154108.000,A,3624.0955,N,02805.3391,E,0.22,0.00,040809,,,A*6F
$GPGGA,154109.000,3624.0954,N,02805.3395,E,1,8,0.97,-3.2,M,33.2,M,,*74
$GPGSA,A,3,12,29,24,02,30,31,14,09,,,,,1.29,0.97,0.85*0A
$GPGSV,4,1,14,30,70,349,25,12,62,078,28,29,53,269,27,24,42,177,39*78
$GPGSV,4,2,14,37,41,189,,02,39,055,38,09,22,168,28,31,18,319,22*74
$GPGSV,4,3,14,14,12,260,19,27,12,164,,21,12,200,,10,09,112,*7C
$GPGSV,4,4,14,04,08,039,,26,06,220,*78
$GPRMC,154109.000,A,3624.0954,N,02805.3395,E,0.33,0.00,040809,,,A*6B
$GPGGA,154110.000,3624.0955,N,02805.3395,E,1,8,0.97,-3.3,M,33.2,M,,*7C
$GPGSA,A,3,12,29,24,02,30,31,14,09,,,,,1.29,0.97,0.85*0A
$GPGSV,4,1,14,30,70,349,26,12,62,078,29,29,53,269,27,24,42,177,39*7A
$GPGSV,4,2,14,37,41,189,,02,39,055,38,09,22,168,28,31,18,319,23*75
$GPGSV,4,3,14,14,12,260,19,27,12,164,,21,12,200,,10,09,112,*7C
$GPGSV,4,4,14,04,08,039,,26,06,220,*78
$GPRMC,154110.000,A,3624.0955,N,02805.3395,E,0.27,0.00,040809,,,A*67
$GPGGA,154111.000,3624.0954,N,02805.3397,E,1,8,0.97,-2.6,M,33.2,M,,*7A
$GPGSA,A,3,12,29,24,02,30,31,14,09,,,,,1.29,0.97,0.85*0A
$GPGSV,4,1,14,30,70,349,27,12,62,078,29,29,53,269,27,24,42,177,39*7B
$GPGSV,4,2,14,37,41,189,,02,39,055,38,09,22,168,28,31,18,319,22*74
$GPGSV,4,3,14,14,12,260,20,27,12,164,,21,12,200,,10,09,112,*76
$GPGSV,4,4,14,04,08,039,,26,06,220,*78
$GPRMC,154111.000,A,3624.0954,N,02805.3397,E,0.26,0.00,040809,,,A*64
$GPGGA,154112.000,3624.0954,N,02805.3399,E,1,8,0.97,-2.1,M,33.2,M,,*70
$GPGSA,A,3,12,29,24,02,30,31,14,09,,,,,1.29,0.97,0.85*0A
$GPGSV,4,1,14,30,70,349,28,12,62,078,30,29,53,269,26,24,42,177,39*7D
$GPGSV,4,2,14,37,41,189,,02,39,055,38,09,22,168,28,31,18,319,23*75
$GPGSV,4,3,14,14,12,260,20,27,12,164,,21,12,200,,10,09,112,*76
$GPGSV,4,4,14,04,08,039,,26,06,220,*78
$GPRMC,154112.000,A,3624.0954,N,02805.3399,E,0.37,0.00,040809,,,A*69
$GPGGA,154113.000,3624.0953,N,02805.3400,E,1,8,0.97,-2.5,M,33.2,M,,*75
$GPGSA,A,3,12,29,24,02,30,31,14,09,,,,,1.29,0.97,0.85*0A
$GPGSV,4,1,14,30,70,349,28,12,62,078,30,29,53,269,25,24,42,177,39*7E
$GPGSV,4,2,14,37,41,189,,02,39,055,38,09,22,168,28,31,18,319,23*75
$GPGSV,4,3,14,14,12,260,20,27,12,164,,21,12,200,,10,09,112,*76
$GPGSV,4,4,14,04,08,039,,26,06,220,*78
$GPRMC,154113.000,A,3624.0953,N,02805.3400,E,0.45,0.00,040809,,,A*6D
$GPGGA,154114.000,3624.0952,N,02805.3398,E,1,8,0.97,-2.6,M,33.2,M,,*76
$GPGSA,A,3,12,29,24,02,30,31,14,09,,,,,1.29,0.97,0.85*0A
$GPGSV,4,1,14,30,70,349,27,12,62,078,31,29,53,269,25,24,42,177,39*70
$GPGSV,4,2,14,37,41,189,,02,39,055,38,09,22,168,28,31,18,319,23*75
$GPGSV,4,3,14,14,12,260,21,27,12,164,,21,12,200,,10,09,112,*77
$GPGSV,4,4,14,04,08,039,,26,06,220,*78
$GPRMC,154114.000,A,3624.0952,N,02805.3398,E,0.25,0.00,040809,,,A*6B
$GPGGA,154115.000,3624.0953,N,02805.3398,E,1,8,0.97,-2.2,M,33.2,M,,*72
$GPGSA,A,3,12,29,24,02,30,31,14,09,,,,,1.29,0.97,0.85*0A
$GPGSV,4,1,14,30,70,349,26,12,62,078,31,29,53,269,25,24,42,177,39*71
$GPGSV,4,2,14,37,41,189,,02,39,055,38,09,22,168,28,31,18,319,23*75
$GPGSV,4,3,14,14,12,260,22,27,12,164,,21,12,200,,10,09,112,*74
$GPGSV,4,4,14,04,08,039,,26,05,220,*7B
$GPRMC,154115.000,A,3624.0953,N,02805.3398,E,0.11,0.00,040809,,,A*6C
$GPGGA,154116.000,3624.0953,N,02805.3397,E,1,8,0.97,-3.4,M,33.2,M,,*79
$GPGSA,A,3,12,29,24,02,30,31,14,09,,,,,1.29,0.97,0.85*0A
$GPGSV,4,1,14,30,70,349,26,12,62,078,30,29,53,269,25,24,42,177,39*70
$GPGSV,4,2,14,37,41,189,,02,39,055,37,09,22,168,28,31,18,319,23*7A
$GPGSV,4,3,14,14,12,260,23,27,12,164,,21,12,200,,10,09,112,*75
$GPGSV,4,4,14,04,08,039,,26,05,220,*7B
$GPRMC,154116.000,A,3624.0953,N,02805.3397,E,0.10,0.00,040809,,,A*61
$GPGGA,154117.000,3624.0952,N,02805.3397,E,1,8,0.97,-3.6,M,33.2,M,,*7B
$GPGSA,A,3,12,29,24,02,30,31,14,09,,,,,1.29,0.97,0.85*0A
$GPGSV,4,1,14,30,70,349,25,12,62,078,30,29,53,269,26,24,42,177,38*71
$GPGSV,4,2,14,02,39,055,37,44,32,127,,09,22,168,27,31,18,319,22*70
$GPGSV,4,3,14,14,12,260,23,27,12,164,,21,12,200,,10,09,112,*75
$GPGSV,4,4,14,04,08,039,,26,05,220,*7B
$GPRMC,154117.000,A,3624.0952,N,02805.3397,E,0.08,0.00,040809,,,A*68
$GPGGA,154118.000,3624.0951,N,02805.3401,E,1,8,0.97,-3.6,M,33.2,M,,*7F
$GPGSA,A,3,12,29,24,02,30,31,14,09,,,,,1.29,0.97,0.85*0A
$GPGSV,4,1,14,30,70,349,24,12,62,078,28,29,53,270,26,24,42,177,36*7F
$GPGSV,4,2,14,02,39,055,36,44,32,127,,09,22,168,26,31,18,319,22*70
$GPGSV,4,3,14,14,12,260,22,27,12,164,,21,12,200,,10,09,112,*74
$GPGSV,4,4,14,04,08,039,,26,05,220,*7B
$GPRMC,154118.000,A,3624.0951,N,02805.3401,E,0.34,0.00,040809,,,A*63
$GPGGA,154119.000,3624.0950,N,02805.3403,E,1,8,0.97,-3.7,M,33.2,M,,*7C
$GPGSA,A,3,12,29,24,02,30,31,14,09,,,,,1.29,0.97,0.85*0A
$GPGSV,4,1,14,30,70,349,23,12,62,078,27,29,53,270,26,24,42,177,34*75
$GPGSV,4,2,14,02,39,055,36,44,32,127,,09,22,168,24,31,18,319,20*70
$GPGSV,4,3,14,14,12,260,20,27,12,164,,21,12,200,,10,09,112,*76
$GPGSV,4,4,14,04,08,039,,26,05,220,*7B
$GPRMC,154119.000,A,3624.0950,N,02805.3403,E,0.37,0.00,040809,,,A*62
$GPGGA,154120.000,3624.0951,N,02805.3406,E,1,8,0.97,-3.9,M,33.2,M,,*7C
$GPGSA,A,3,12,29,24,02,30,31,14,09,,,,,1.29,0.97,0.85*0A
$GPGSV,4,1,14,30,70,349,22,12,62,078,26,29,53,270,26,24,42,177,33*72
$GPGSV,4,2,14,02,39,055,36,44,32,127,,09,22,168,23,31,18,319,20*77
$GPGSV,4,3,14,14,12,260,19,27,12,164,,21,12,200,,10,09,112,*7C
$GPGSV,4,4,14,04,08,039,,26,05,220,*7B
$GPRMC,154120.000,A,3624.0951,N,02805.3406,E,0.21,0.00,040809,,,A*6B
$GPGGA,154121.000,3624.0952,N,02805.3405,E,1,8,0.97,-3.9,M,33.2,M,,*7D
$GPGSA,A,3,12,29,24,02,30,31,14,09,,,,,1.29,0.97,0.85*0A
$GPGSV,4,1,14,30,70,349,21,12,62,078,25,29,53,270,26,24,42,177,31*70
$GPGSV,4,2,14,02,39,055,36,44,32,127,,09,22,168,22,31,18,319,20*76
$GPGSV,4,3,14,14,12,260,18,27,12,164,,21,12,200,,10,09,112,*7D
$GPGSV,4,4,14,04,08,039,,26,05,220,*7B
$GPRMC,154121.000,A,3624.0952,N,02805.3405,E,0.16,0.00,040809,,,A*6E
$GPGGA,154122.000,3624.0951,N,02805.3405,E,1,8,0.97,-3.9,M,33.2,M,,*7D
$GPGSA,A,3,12,29,24,02,30,31,14,09,,,,,1.29,0.97,0.85*0A
$GPGSV,4,1,14,30,70,349,20,12,62,078,24,29,53,270,26,24,42,177,30*71
$GPGSV,4,2,14,02,39,055,36,44,32,127,,09,22,168,21,31,18,319,19*7F
$GPGSV,4,3,14,14,12,260,19,27,12,164,,21,12,200,,10,09,112,*7C
$GPGSV,4,4,14,04,08,039,,26,05,220,*7B
$GPRMC,154122.000,A,3624.0951,N,02805.3405,E,0.14,0.00,040809,,,A*6C
$GPGGA,154123.000,3624.0951,N,02805.3406,E,1,8,0.97,-3.9,M,33.2,M,,*7F
$GPGSA,A,3,12,29,24,02,30,31,14,09,,,,,1.29,0.97,0.85*0A
$GPGSV,4,1,14,30,70,349,19,12,62,078,23,29,53,270,26,24,42,177,29*74
$GPGSV,4,2,14,02,38,055,35,44,32,127,,09,22,168,19,31,18,319,20*7C
$GPGSV,4,3,14,14,12,260,19,27,12,164,,21,12,200,,10,09,112,*7C
$GPGSV,4,4,14,04,08,039,,26,05,220,*7B
$GPRMC,154123.000,A,3624.0951,N,02805.3406,E,0.13,0.00,040809,,,A*69
$GPGGA,154124.000,3624.0951,N,02805.3405,E,1,8,0.97,-3.9,M,33.2,M,,*7B
$GPGSA,A,3,12,29,24,02,30,31,14,09,,,,,1.29,0.97,0.85*0A
$GPGSV,4,1,14,30,70,349,19,12,62,078,23,29,53,270,26,24,42,177,29*74
$GPGSV,4,2,14,02,38,055,35,44,32,127,,09,22,168,18,31,18,319,20*7D
$GPGSV,4,3,14,14,12,260,19,27,12,164,,21,12,200,,10,09,112,*7C
$GPGSV,4,4,14,04,08,039,,26,05,220,*7B
$GPRMC,154124.000,A,3624.0951,N,02805.3405,E,0.28,0.00,040809,,,A*65
$GPGGA,154125.000,3624.0952,N,02805.3405,E,1,8,0.97,-3.9,M,33.2,M,,*79
$GPGSA,A,3,12,29,24,02,30,31,14,09,,,,,1.29,0.97,0.85*0A
$GPGSV,4,1,14,30,70,349,20,12,62,078,22,29,53,270,26,24,42,177,29*7F
$GPGSV,4,2,14,02,38,055,34,44,32,127,,09,22,168,17,31,18,319,19*79
$GPGSV,4,3,14,14,12,260,18,27,12,164,,21,12,200,,10,09,112,*7D
$GPGSV,4,4,14,04,08,039,,26,05,220,*7B
$GPRMC,154125.000,A,3624.0952,N,02805.3405,E,0.12,0.00,040809,,,A*6E
$GPGGA,154126.000,3624.0952,N,02805.3405,E,1,8,0.97,-3.9,M,33.2,M,,*7A
$GPGSA,A,3,12,29,24,02,30,31,14,09,,,,,1.29,0.97,0.85*0A
$GPGSV,4,1,14,30,70,349,21,12,62,078,21,29,53,270,26,24,42,177,30*75
$GPGSV,4,2,14,02,38,055,33,33,27,238,,09,22,168,17,31,18,319,20*7D
$GPGSV,4,3,14,14,12,260,18,27,12,164,,21,12,200,,10,09,112,*7D
$GPGSV,4,4,14,04,08,039,,26,05,220,*7B
$GPRMC,154126.000,A,3624.0952,N,02805.3405,E,0.17,0.00,040809,,,A*68
$GPGGA,154127.000,3624.0953,N,02805.3405,E,1,8,0.97,-3.9,M,33.2,M,,*7A
$GPGSA,A,3,12,29,24,02,30,31,14,09,,,,,1.29,0.97,0.85*0A
$GPGSV,4,1,14,30,70,349,22,12,62,078,21,29,53,270,25,24,42,177,30*75
$GPGSV,4,2,14,02,38,055,32,33,27,238,,09,22,168,17,31,18,319,21*7D
$GPGSV,4,3,14,14,12,260,19,27,12,164,,21,12,200,,10,09,112,*7C
$GPGSV,4,4,14,04,08,039,,26,05,220,*7B
$GPRMC,154127.000,A,3624.0953,N,02805.3405,E,0.23,0.00,040809,,,A*6F
$GPGGA,154128.000,3624.0953,N,02805.3405,E,1,8,1.04,-3.9,M,33.2,M,,*7E
$GPGSA,A,3,12,29,24,02,30,31,14,09,,,,,1.91,1.04,1.60*08
$GPGSV,4,1,14,30,70,349,22,12,62,078,21,29,53,270,25,24,42,177,30*75
$GPGSV,4,2,14,02,38,055,31,33,27,238,,09,22,168,17,31,18,319,21*7E
$GPGSV,4,3,14,14,12,260,20,27,12,164,,21,12,200,,10,09,112,*76
$GPGSV,4,4,14,04,08,039,,26,05,220,*7B
$GPRMC,154128.000,A,3624.0953,N,02805.3405,E,0.38,0.00,040809,,,A*6A
$GPGGA,154129.000,3624.0954,N,02805.3406,E,1,8,0.97,-3.9,M,33.2,M,,*70
$GPGSA,A,3,12,29,24,02,30,31,14,09,,,,,1.29,0.97,0.85*0A
$GPGSV,4,1,14,30,70,349,22,12,62,078,20,29,53,270,25,24,42,177,30*74
$GPGSV,4,2,14,02,38,055,31,33,27,238,,09,22,168,17,31,18,319,21*7E
$GPGSV,4,3,14,14,12,260,21,27,12,164,,21,12,200,,10,09,112,*77
$GPGSV,4,4,14,04,08,039,,26,05,220,*7B
$GPRMC,154129.000,A,3624.0954,N,02805.3406,E,0.35,0.00,040809,,,A*62
$GPGGA,154130.000,3624.0955,N,02805.3407,E,1,8,0.97,-3.9,M,33.2,M,,*78
$GPGSA,A,3,12,29,24,02,30,31,14,09,,,,,1.29,0.97,0.85*0A
$GPGSV,4,1,14,30,70,349,22,12,62,078,19,29,53,270,25,24,42,177,30*7E
$GPGSV,4,2,14,02,38,055,31,33,27,238,,09,22,168,17,31,18,319,21*7E
$GPGSV,4,3,14,14,12,260,22,27,12,164,,21,12,200,,10,09,112,*74
$GPGSV,4,4,14,04,08,039,,26,05,220,*7B
$GPRMC,154130.000,A,3624.0955,N,02805.3407,E,0.38,0.00,040809,,,A*67
$GPGGA,154131.000,3624.0955,N,02805.3409,E,1,8,0.97,-3.9,M,33.2,M,,*77
$GPGSA,A,3,12,29,24,02,30,31,14,09,,,,,1.29,0.97,0.85*0A
$GPGSV,4,1,14,30,70,349,22,12,62,078,19,29,53,270,24,24,42,177,30*7F
$GPGSV,4,2,14,02,38,055,31,33,27,238,,09,22,168,17,31,18,319,20*7F
$GPGSV,4,3,14,14,12,260,21,27,12,164,,21,12,200,,10,09,112,*77
$GPGSV,4,4,14,04,08,039,,26,05,220,*7B
$GPRMC,154131.000,A,3624.0955,N,02805.3409,E,0.40,0.00,040809,,,A*67
$GPGGA,154132.000,3624.0955,N,02805.3410,E,1,8,0.97,-3.9,M,33.2,M,,*7C
$GPGSA,A,3,12,29,24,02,30,31,14,09,,,,,1.29,0.97,0.85*0A
$GPGSV,4,1,14,30,70,349,22,12,62,078,19,29,53,270,24,24,42,177,30*7F
$GPGSV,4,2,14,02,38,055,31,33,27,238,,09,22,168,17,31,18,319,19*75
$GPGSV,4,3,14,14,12,260,20,27,12,164,,21,12,200,,10,09,112,*76
$GPGSV,4,4,14,04,08,039,,26,05,220,*7B
$GPRMC,154132.000,A,3624.0955,N,02805.3410,E,0.36,0.00,040809,,,A*6D
$GPGGA,154133.000,3624.0955,N,02805.3411,E,1,8,0.97,-3.9,M,33.2,M,,*7C
$GPGSA,A,3,12,29,24,02,30,31,14,09,,,,,1.29,0.97,0.85*0A
$GPGSV,4,1,14,30,70,349,22,12,62,078,20,29,53,270,24,24,42,177,30*75
$GPGSV,4,2,14,02,38,055,30,33,27,238,,09,22,168,17,31,18,319,19*74
$GPGSV,4,3,14,14,12,260,20,27,12,164,,21,12,200,,10,09,112,*76
$GPGSV,4,4,14,04,08,039,,26,05,220,*7B
$GPRMC,154133.000,A,3624.0955,N,02805.3411,E,0.32,0.00,040809,,,A*69
$GPGGA,154134.000,3624.0955,N,02805.3412,E,1,8,0.97,-3.9,M,33.2,M,,*78
$GPGSA,A,3,12,29,24,02,30,31,14,09,,,,,1.29,0.97,0.85*0A
$GPGSV,4,1,14,30,70,349,22,12,62,078,20,29,53,270,25,24,42,177,30*74
$GPGSV,4,2,14,02,38,055,30,33,27,238,,09,22,168,18,31,18,319,18*7A
$GPGSV,4,3,14,14,12,260,20,27,12,164,,21,12,200,,10,09,112,*76
$GPGSV,4,4,14,04,08,039,,26,05,220,*7B
$GPRMC,154134.000,A,3624.0955,N,02805.3412,E,0.23,0.00,040809,,,A*6D
$GPGGA,154135.000,3624.0956,N,02805.3412,E,1,8,0.97,-3.9,M,33.2,M,,*7A
$GPGSA,A,3,12,29,24,02,30,31,14,09,,,,,1.29,0.97,0.85*0A
$GPGSV,4,1,14,30,70,349,22,12,62,078,21,29,53,270,24,24,42,177,30*74
$GPGSV,4,2,14,02,38,055,30,33,27,238,,09,22,168,17,31,18,319,18*75
$GPGSV,4,3,14,14,12,260,19,27,12,164,,21,12,200,,10,09,112,*7C
$GPGSV,4,4,14,04,08,039,,26,05,220,*7B
$GPRMC,154135.000,A,3624.0956,N,02805.3412,E,0.02,0.00,040809,,,A*6C
$GPGGA,154136.000,3624.0956,N,02805.3412,E,1,8,0.97,-3.9,M,33.2,M,,*79
$GPGSA,A,3,12,29,24,02,30,31,14,09,,,,,1.29,0.97,0.85*0A
$GPGSV,4,1,14,30,70,349,22,12,62,078,20,29,53,270,24,39,47,185,*72
$GPGSV,4,2,14,24,42,177,30,02,38,055,30,09,22,168,17,31,18,319,18*7B
$GPGSV,4,3,14,14,12,260,18,27,12,164,,21,12,200,,10,09,112,*7D
$GPGSV,4,4,14,04,08,039,,26,05,220,*7B
$GPRMC,154136.000,A,3624.0956,N,02805.3412,E,0.16,0.00,040809,,,A*6A
$GPGGA,154137.000,3624.0956,N,02805.3412,E,1,8,0.97,-3.9,M,33.2,M,,*78
$GPGSA,A,3,12,29,24,02,30,31,14,09,,,,,1.29,0.97,0.85*0A
$GPGSV,4,1,14,30,70,349,21,12,62,078,19,29,53,270,25,39,47,185,*7A
$GPGSV,4,2,14,24,42,177,30,02,38,055,30,09,22,168,18,31,18,319,18*74
$GPGSV,4,3,14,14,12,260,18,27,12,164,,21,12,200,,10,09,112,*7D
$GPGSV,4,4,14,04,08,039,,26,05,220,*7B
$GPRMC,154137.000,A,3624.0956,N,02805.3412,E,0.11,0.00,040809,,,A*6C
$GPGGA,154138.000,3624.0956,N,02805.3412,E,1,8,0.97,-3.9,M,33.2,M,,*77
$GPGSA,A,3,12,29,24,02,30,31,14,09,,,,,1.29,0.97,0.85*0A
$GPGSV,4,1,14,30,70,349,22,12,62,078,19,29,53,270,25,39,47,185,*79
$GPGSV,4,2,14,24,42,177,30,02,38,055,31,09,22,168,18,31,18,319,17*7A
$GPGSV,4,3,14,14,12,260,19,27,12,164,,21,12,200,,10,09,112,*7C
$GPGSV,4,4,14,04,08,039,,26,05,220,*7B
$GPRMC,154138.000,A,3624.0956,N,02805.3412,E,0.35,0.00,040809,,,A*65
$GPGGA,154139.000,3624.0957,N,02805.3412,E,1,8,1.03,-3.9,M,33.2,M,,*7B
$GPGSA,A,3,12,29,24,02,30,31,14,09,,,,,1.91,1.03,1.60*0F
$GPGSV,4,1,14,30,70,349,22,12,62,078,19,29,53,270,24,39,47,185,*78
$GPGSV,4,2,14,24,42,177,30,02,38,055,31,09,22,168,18,31,18,319,17*7A
$GPGSV,4,3,14,14,12,260,19,27,12,164,,21,12,200,,10,09,112,*7C
$GPGSV,4,4,14,04,08,039,,26,05,220,*7B
$GPRMC,154139.000,A,3624.0957,N,02805.3412,E,0.34,0.00,040809,,,A*64
$GPGGA,154140.000,3624.0958,N,02805.3412,E,1,8,0.97,-3.9,M,33.2,M,,*76
$GPGSA,A,3,12,29,24,02,30,31,14,09,,,,,1.29,0.97,0.85*0A
$GPGSV,4,1,14,30,70,349,22,12,62,078,18,29,53,270,24,39,47,185,*79
$GPGSV,4,2,14,24,42,177,30,02,38,055,31,09,22,168,18,31,18,319,17*7A
$GPGSV,4,3,14,14,12,260,18,27,12,164,,21,12,200,,10,09,112,*7D
$GPGSV,4,4,14,04,08,039,,26,05,220,*7B
$GPRMC,154140.000,A,3624.0958,N,02805.3412,E,0.41,0.00,040809,,,A*67
$GPGGA,154141.000,3624.0959,N,02805.3411,E,1,8,0.97,-3.9,M,33.2,M,,*75
$GPGSA,A,3,12,29,24,02,30,31,14,09,,,,,1.29,0.97,0.85*0A
$GPGSV,4,1,14,30,70,349,22,12,62,078,17,29,53,270,24,39,47,185,*76
$GPGSV,4,2,14,24,42,177,30,02,38,055,30,09,22,168,18,31,18,319,17*7B
$GPGSV,4,3,14,14,12,260,18,27,12,164,,21,12,200,,10,09,112,*7D
$GPGSV,4,4,14,04,08,039,,26,05,220,*7B
$GPRMC,154141.000,A,3624.0959,N,02805.3411,E,0.43,0.00,040809,,,A*66
$GPGGA,154142.000,3624.0960,N,02805.3411,E,1,8,0.97,-3.9,M,33.2,M,,*7C
$GPGSA,A,3,12,29,24,02,30,31,14,09,,,,,1.29,0.97,0.85*0A
$GPGSV,4,1,14,30,70,349,23,12,62,078,17,29,53,270,24,39,47,185,*77
$GPGSV,4,2,14,24,42,177,30,02,38,055,30,09,22,168,18,31,18,319,17*7B
$GPGSV,4,3,14,14,12,260,18,27,12,164,,21,12,200,,10,09,112,*7D
$GPGSV,4,4,14,04,08,039,,26,05,220,*7B
$GPRMC,154142.000,A,3624.0960,N,02805.3411,E,0.40,0.00,040809,,,A*6C
$GPGGA,154143.000,3624.0961,N,02805.3410,E,1,8,0.97,-3.9,M,33.2,M,,*7D
$GPGSA,A,3,12,29,24,02,30,31,14,09,,,,,1.29,0.97,0.85*0A
$GPGSV,4,1,14,30,70,349,23,12,62,078,16,29,53,270,24,39,47,185,*76
$GPGSV,4,2,14,24,42,177,30,02,38,055,29,09,22,168,17,31,18,319,17*7C
$GPGSV,4,3,14,14,12,260,18,27,12,164,,21,12,200,,10,09,112,*7D
$GPGSV,4,4,14,04,08,039,,26,05,220,*7B
$GPRMC,154143.000,A,3624.0961,N,02805.3410,E,0.34,0.00,040809,,,A*6E
$GPGGA,154144.000,3624.0962,N,02805.3409,E,1,8,0.97,-3.9,M,33.2,M,,*71
$GPGSA,A,3,12,29,24,02,30,31,14,09,,,,,1.29,0.97,0.85*0A
$GPGSV,4,1,14,30,70,349,22,12,62,078,16,29,53,270,23,39,47,185,*70
$GPGSV,4,2,14,24,42,177,29,02,38,055,28,09,22,168,17,31,18,319,17*75
$GPGSV,4,3,14,14,12,260,18,27,12,164,,21,12,200,,10,09,112,*7D
$GPGSV,4,4,14,04,08,039,,26,05,220,*7B
$GPRMC,154144.000,A,3624.0962,N,02805.3409,E,0.47,0.00,040809,,,A*66
$GPGGA,154145.000,3624.0963,N,02805.3408,E,1,8,0.97,-3.9,M,33.2,M,,*70
$GPGSA,A,3,12,29,24,02,30,31,14,09,,,,,1.29,0.97,0.85*0A
$GPGSV,4,1,14,30,70,349,23,12,62,078,16,29,53,270,23,24,43,177,29*7F
$GPGSV,4,2,14,37,41,189,,02,38,055,29,09,22,168,17,31,18,319,17*7F
$GPGSV,4,3,14,14,12,260,18,27,12,164,,21,12,200,,10,09,112,*7D
$GPGSV,4,4,14,04,08,039,,26,05,220,*7B
$GPRMC,154145.000,A,3624.0963,N,02805.3408,E,0.42,0.00,040809,,,A*62
$GPGGA,154146.000,3624.0963,N,02805.3407,E,1,7,1.02,-3.9,M,33.2,M,,*7E
$GPGSA,A,3,29,24,02,30,31,14,09,,,,,,1.33,1.02,0.85*0F
$GPGSV,4,1,14,30,70,349,24,12,62,078,,29,53,270,23,24,43,177,29*7F
$GPGSV,4,2,14,37,41,189,,02,38,055,30,09,22,168,18,31,18,319,17*78
$GPGSV,4,3,14,14,12,260,18,27,12,164,,21,12,200,,10,09,112,*7D
$GPGSV,4,4,14,04,08,039,,26,05,220,*7B
$GPRMC,154146.000,A,3624.0963,N,02805.3407,E,0.35,0.00,040809,,,A*6E
$GPGGA,154147.000,3624.0964,N,02805.3406,E,1,7,1.02,-3.9,M,33.2,M,,*79
$GPGSA,A,3,29,24,02,30,31,14,09,,,,,,1.33,1.02,0.85*0F
$GPGSV,4,1,14,30,70,349,24,12,62,078,,29,53,270,22,24,43,177,29*7E
$GPGSV,4,2,14,37,41,189,,02,38,055,30,09,22,168,18,31,18,319,17*78
$GPGSV,4,3,14,14,12,260,18,27,12,164,,21,12,200,,10,09,112,*7D
$GPGSV,4,4,14,04,08,039,,26,05,220,*7B
$GPRMC,154147.000,A,3624.0964,N,02805.3406,E,0.40,0.00,040809,,,A*6B
$GPGGA,154148.000,3624.0965,N,02805.3405,E,1,7,1.02,-3.9,M,33.2,M,,*74
$GPGSA,A,3,29,24,02,30,31,14,09,,,,,,1.33,1.02,0.85*0F
$GPGSV,4,1,14,30,70,349,23,12,62,078,,29,53,270,23,24,43,177,29*78
$GPGSV,4,2,14,37,41,189,,02,38,055,30,09,22,168,19,31,18,319,16*78
$GPGSV,4,3,14,14,12,260,18,27,12,164,,21,12,200,,10,09,112,*7D
$GPGSV,4,4,14,04,08,039,,26,05,220,*7B
$GPRMC,154148.000,A,3624.0965,N,02805.3405,E,0.55,0.00,040809,,,A*62
$GPGGA,154149.000,3624.0965,N,02805.3403,E,1,7,1.02,-3.9,M,33.2,M,,*73
$GPGSA,A,3,29,24,02,30,31,14,09,,,,,,1.33,1.02,0.85*0F
$GPGSV,4,1,14,30,70,349,23,12,62,078,,29,53,270,23,24,43,177,29*78
$GPGSV,4,2,14,37,41,189,,02,38,055,31,09,22,168,20,31,18,319,16*73
$GPGSV,4,3,14,14,12,260,19,27,12,164,,21,12,200,,10,09,112,*7C
$GPGSV,4,4,14,04,08,039,,26,05,220,*7B
$GPRMC,154149.000,A,3624.0965,N,02805.3403,E,0.07,0.00,040809,,,A*62
$GPGGA,154150.000,3624.0965,N,02805.3403,E,1,8,0.97,-3.9,M,33.2,M,,*79
$GPGSA,A,3,12,29,24,02,30,31,14,09,,,,,1.29,0.97,0.85*0A
$GPGSV,4,1,14,30,70,349,23,12,62,078,18,29,53,270,23,24,43,177,29*71
$GPGSV,4,2,14,37,41,189,,02,38,055,31,09,22,168,22,31,18,319,16*71
$GPGSV,4,3,14,14,12,260,20,27,12,164,,21,12,200,,10,09,112,*76
$GPGSV,4,4,14,04,08,039,,26,05,220,*7B
$GPRMC,154150.000,A,3624.0965,N,02805.3403,E,0.08,0.00,040809,,,A*65
$GPGGA,154151.000,3624.0966,N,02805.3403,E,1,8,1.03,-3.9,M,33.2,M,,*77
$GPGSA,A,3,12,29,24,02,30,31,14,09,,,,,1.90,1.03,1.60*0E
$GPGSV,4,1,14,30,70,350,23,12,62,078,18,29,53,270,22,24,43,177,29*78
$GPGSV,4,2,14,37,41,189,,02,38,055,31,09,22,168,23,31,18,319,17*71
$GPGSV,4,3,14,14,12,260,21,27,12,164,,21,12,200,,10,09,112,*77
$GPGSV,4,4,14,04,08,039,,26,05,220,*7B
$GPRMC,154151.000,A,3624.0966,N,02805.3403,E,0.21,0.00,040809,,,A*6C
$GPGGA,154152.000,3624.0965,N,02805.3404,E,1,8,0.97,-3.9,M,33.2,M,,*7C
$GPGSA,A,3,12,29,24,02,30,31,14,09,,,,,1.29,0.97,0.85*0A
$GPGSV,4,1,14,30,70,350,23,12,62,078,19,29,53,270,22,24,43,177,29*79
$GPGSV,4,2,14,37,41,189,,02,38,055,31,09,22,168,23,31,18,319,17*71
$GPGSV,4,3,14,14,12,260,21,27,12,164,,21,12,200,,10,09,112,*77
$GPGSV,4,4,14,04,08,039,,26,05,220,*7B
$GPRMC,154152.000,A,3624.0965,N,02805.3404,E,0.09,0.00,040809,,,A*61
$GPGGA,154153.000,3624.0966,N,02805.3403,E,1,8,1.03,-3.9,M,33.2,M,,*75
$GPGSA,A,3,12,29,24,02,30,31,14,09,,,,,1.90,1.03,1.60*0E
$GPGSV,4,1,14,30,70,350,23,12,62,078,19,29,53,270,22,24,43,177,29*79
$GPGSV,4,2,14,37,41,189,,02,38,055,31,09,22,168,24,31,18,319,17*76
$GPGSV,4,3,14,14,12,260,21,27,12,164,,21,12,200,,10,09,112,*77
$GPGSV,4,4,14,04,08,039,,26,05,220,*7B
$GPRMC,154153.000,A,3624.0966,N,02805.3403,E,0.13,0.00,040809,,,A*6F
$GPGGA,154154.000,3624.0965,N,02805.3403,E,1,8,0.97,-3.9,M,33.2,M,,*7D
$GPGSA,A,3,12,29,24,02,30,31,14,09,,,,,1.29,0.97,0.85*0A
$GPGSV,4,1,14,30,70,350,23,12,62,078,19,29,53,270,22,24,43,177,29*79
$GPGSV,4,2,14,37,41,189,,02,38,055,31,09,22,168,23,31,18,319,17*71
$GPGSV,4,3,14,14,12,260,21,27,12,164,,21,12,200,,10,09,112,*77
$GPGSV,4,4,14,04,08,039,,26,05,220,*7B
$GPRMC,154154.000,A,3624.0965,N,02805.3403,E,0.43,0.00,040809,,,A*6E
$GPGGA,154155.000,3624.0965,N,02805.3405,E,1,8,0.97,-3.9,M,33.2,M,,*7A
$GPGSA,A,3,12,29,24,02,30,31,14,09,,,,,1.29,0.97,0.85*0A
$GPGSV,4,1,14,30,70,350,23,12,62,078,19,29,53,270,23,24,43,177,29*78
$GPGSV,4,2,14,02,38,055,30,44,32,127,,09,22,168,23,31,18,319,17*74
$GPGSV,4,3,14,14,12,260,21,27,12,164,,21,12,200,,10,09,112,*77
$GPGSV,4,4,14,04,08,039,,26,05,220,*7B
$GPRMC,154155.000,A,3624.0965,N,02805.3405,E,0.22,0.00,040809,,,A*6E
$GPGGA,154156.000,3624.0964,N,02805.3405,E,1,8,0.97,-3.9,M,33.2,M,,*78
$GPGSA,A,3,12,29,24,02,30,31,14,09,,,,,1.29,0.97,0.85*0A
$GPGSV,4,1,14,30,70,350,24,12,62,078,18,29,53,270,23,24,43,177,28*7F
$GPGSV,4,2,14,02,38,055,30,44,32,127,,09,22,168,23,31,18,319,17*74
$GPGSV,4,3,14,14,12,260,20,27,12,164,,21,12,200,,10,09,112,*76
$GPGSV,4,4,14,04,08,039,,26,05,220,*7B
$GPRMC,154156.000,A,3624.0964,N,02805.3405,E,0.05,0.00,040809,,,A*69
$GPGGA,154157.000,3624.0964,N,02805.3405,E,1,8,0.97,-3.9,M,33.2,M,,*79
$GPGSA,A,3,12,29,24,02,30,31,14,09,,,,,1.29,0.97,0.85*0A
$GPGSV,4,1,14,30,70,350,24,12,62,078,19,29,53,270,22,24,43,177,27*70
$GPGSV,4,2,14,02,38,055,30,44,32,127,,09,22,168,23,31,18,319,17*74
$GPGSV,4,3,14,14,12,260,20,27,12,164,,21,12,200,,10,09,112,*76
$GPGSV,4,4,14,04,08,039,,26,05,220,*7B
$GPRMC,154157.000,A,3624.0964,N,02805.3405,E,0.20,0.00,040809,,,A*6F
$GPGGA,154158.000,3624.0964,N,02805.3405,E,1,8,0.97,-3.9,M,33.2,M,,*76
$GPGSA,A,3,12,29,24,02,30,31,14,09,,,,,1.29,0.97,0.85*0A
$GPGSV,4,1,14,30,70,350,24,12,62,078,19,29,53,270,21,24,43,177,28*7C
$GPGSV,4,2,14,02,38,055,30,44,32,127,,09,22,168,24,31,18,319,17*73
$GPGSV,4,3,14,14,12,260,20,27,12,164,,21,12,200,,10,09,112,*76
$GPGSV,4,4,14,04,08,039,,26,05,220,*7B
$GPRMC,154158.000,A,3624.0964,N,02805.3405,E,0.26,0.00,040809,,,A*66
$GPGGA,154159.000,3624.0963,N,02805.3405,E,1,8,0.97,-3.9,M,33.2,M,,*70
$GPGSA,A,3,12,29,24,02,30,31,14,09,,,,,1.29,0.97,0.85*0A
$GPGSV,4,1,14,30,70,350,24,12,62,078,19,29,53,270,22,24,43,177,29*7E
$GPGSV,4,2,14,02,38,055,30,44,32,127,,09,22,168,24,31,18,319,17*73
$GPGSV,4,3,14,14,12,260,20,27,12,164,,21,12,200,,10,09,112,*76
$GPGSV,4,4,14,04,08,039,,26,05,220,*7B
$GPRMC,154159.000,A,3624.0963,N,02805.3405,E,0.31,0.00,040809,,,A*66
$GPGGA,154200.000,3624.0962,N,02805.3405,E,1,8,0.97,-3.9,M,33.2,M,,*7E
$GPGSA,A,3,12,29,24,02,30,31,14,09,,,,,1.29,0.97,0.85*0A
$GPGSV,4,1,14,30,70,350,25,12,62,078,19,29,53,270,21,24,43,177,29*7C
$GPGSV,4,2,14,02,38,055,30,44,32,127,,09,22,168,24,31,18,319,17*73
$GPGSV,4,3,14,14,12,260,21,27,12,164,,21,12,200,,10,09,112,*77
$GPGSV,4,4,14,04,08,039,,26,05,220,*7B
$GPRMC,154200.000,A,3624.0962,N,02805.3405,E,0.28,0.00,040809,,,A*60
$GPGGA,154201.000,3624.0962,N,02805.3404,E,1,8,0.97,-3.9,M,33.2,M,,*7E
$GPGSA,A,3,12,29,24,02,30,31,14,09,,,,,1.29,0.97,0.85*0A
$GPGSV,4,1,14,30,70,350,25,12,62,078,20,29,53,270,22,24,43,177,29*75
$GPGSV,4,2,14,02,38,055,31,44,32,127,,09,22,168,24,31,18,319,17*72
$GPGSV,4,3,14,14,12,260,21,27,12,164,,21,12,200,,10,09,112,*77
$GPGSV,4,4,14,04,08,039,,26,05,220,*7B
$GPRMC,154201.000,A,3624.0962,N,02805.3404,E,0.34,0.00,040809,,,A*6D
$GPGGA,154202.000,3624.0962,N,02805.3403,E,1,8,0.97,-3.9,M,33.2,M,,*7A
$GPGSA,A,3,12,29,24,02,30,31,14,09,,,,,1.29,0.97,0.85*0A
$GPGSV,4,1,14,30,70,350,25,12,62,078,20,29,53,270,23,24,43,177,29*74
$GPGSV,4,2,14,02,38,055,32,44,32,127,,09,22,168,25,31,18,319,18*7F
$GPGSV,4,3,14,14,12,260,20,27,12,164,,21,12,200,,10,09,112,*76
$GPGSV,4,4,14,04,08,039,,26,05,220,*7B
$GPRMC,154202.000,A,3624.0962,N,02805.3403,E,0.15,0.00,040809,,,A*6A
$GPGGA,154203.000,3624.0962,N,02805.3404,E,1,8,0.97,-3.9,M,33.2,M,,*7C
$GPGSA,A,3,12,29,24,02,30,31,14,09,,,,,1.29,0.97,0.85*0A
$GPGSV,4,1,14,30,70,350,25,12,62,078,20,29,53,270,24,24,43,177,29*73
$GPGSV,4,2,14,02,38,055,33,44,32,127,,09,22,168,25,31,18,319,18*7E
$GPGSV,4,3,14,14,12,260,20,27,12,164,,21,12,200,,10,09,112,*76
$GPGSV,4,4,14,04,08,039,,26,05,220,*7B
$GPRMC,154203.000,A,3624.0962,N,02805.3404,E,0.30,0.00,040809,,,A*6B
$GPGGA,154204.000,3624.0963,N,02805.3404,E,1,8,0.97,-3.9,M,33.2,M,,*7A
$GPGSA,A,3,12,29,24,02,30,31,14,09,,,,,1.29,0.97,0.85*0A
$GPGSV,4,1,14,30,70,350,24,12,62,078,20,29,53,270,23,24,43,177,29*75
$GPGSV,4,2,14,02,38,055,33,33,27,238,,09,22,168,26,31,18,319,18*74
$GPGSV,4,3,14,14,12,260,20,27,12,164,,21,12,200,,10,09,112,*76
$GPGSV,4,4,14,04,08,039,,26,05,220,*7B
$GPRMC,154204.000,A,3624.0963,N,02805.3404,E,0.30,0.00,040809,,,A*6D
$GPGGA,154205.000,3624.0963,N,02805.3405,E,1,8,0.97,-3.9,M,33.2,M,,*7A
$GPGSA,A,3,12,29,24,02,30,31,14,09,,,,,1.29,0.97,0.85*0A
$GPGSV,4,1,14,30,70,350,24,12,61,079,20,29,53,270,23,24,43,177,30*7F
$GPGSV,4,2,14,02,38,055,33,33,27,238,,09,22,168,26,31,18,319,17*7B
$GPGSV,4,3,14,14,12,260,20,27,12,164,,21,12,200,,10,09,112,*76
$GPGSV,4,4,14,04,08,039,,26,05,220,*7B
$GPRMC,154205.000,A,3624.0963,N,02805.3405,E,0.01,0.00,040809,,,A*6F
$GPGGA,154206.000,3624.0963,N,02805.3405,E,1,8,0.97,-3.9,M,33.2,M,,*79
$GPGSA,A,3,12,29,24,02,30,31,14,09,,,,,1.29,0.97,0.85*0A
$GPGSV,4,1,14,30,70,350,26,12,61,079,22,29,53,270,22,24,43,177,39*77
$GPGSV,4,2,14,02,38,055,34,33,27,238,,09,22,168,28,31,18,319,18*7D
$GPGSV,4,3,14,14,12,260,21,27,12,164,,21,12,200,,10,09,112,*77
$GPGSV,4,4,14,04,08,039,,26,05,220,*7B
$GPRMC,154206.000,A,3624.0963,N,02805.3405,E,0.10,0.00,040809,,,A*6C
$GPGGA,154207.000,3624.0964,N,02805.3406,E,1,8,0.97,-3.9,M,33.2,M,,*7C
$GPGSA,A,3,12,29,24,02,30,31,14,09,,,,,1.29,0.97,0.85*0A
$GPGSV,4,1,14,30,70,350,27,12,61,079,23,29,53,270,23,24,43,177,39*76
$GPGSV,4,2,14,02,38,055,35,33,27,238,,09,22,168,29,31,18,319,25*73
$GPGSV,4,3,14,14,12,259,22,27,12,164,,21,12,200,,10,09,112,*7E
$GPGSV,4,4,14,04,08,039,,26,05,220,*7B
$GPRMC,154207.000,A,3624.0964,N,02805.3406,E,0.12,0.00,040809,,,A*6B
$GPGGA,154208.000,3624.0964,N,02805.3406,E,1,8,0.97,-3.9,M,33.2,M,,*73
$GPGSA,A,3,12,29,24,02,30,31,14,09,,,,,1.29,0.97,0.85*0A
$GPGSV,4,1,14,30,70,350,28,12,61,079,24,29,53,270,24,24,43,177,39*79
$GPGSV,4,2,14,02,38,055,35,33,27,238,,09,22,168,30,31,18,319,24*7A
$GPGSV,4,3,14,14,12,259,22,27,12,164,,21,12,200,,10,09,112,*7E
$GPGSV,4,4,14,04,08,039,,26,05,220,*7B
$GPRMC,154208.000,A,3624.0964,N,02805.3406,E,0.10,0.00,040809,,,A*66
$GPGGA,154209.000,3624.0964,N,02805.3406,E,1,8,0.97,-3.8,M,33.2,M,,*73
$GPGSA,A,3,12,29,24,02,30,31,14,09,,,,,1.29,0.97,0.85*0A
$GPGSV,4,1,14,30,70,350,28,12,61,079,25,29,53,270,25,24,43,177,39*79
$GPGSV,4,2,14,02,38,055,36,33,27,238,,09,22,168,31,31,18,319,24*78
$GPGSV,4,3,14,14,12,259,23,27,12,164,,21,12,200,,10,09,112,*7F
$GPGSV,4,4,14,04,08,039,,26,05,220,*7B
$GPRMC,154209.000,A,3624.0964,N,02805.3406,E,0.16,0.00,040809,,,A*61
$GPGGA,154210.000,3624.0964,N,02805.3405,E,1,8,0.97,-3.8,M,33.2,M,,*78
$GPGSA,A,3,12,29,24,02,30,31,14,09,,,,,1.29,0.97,0.85*0A
$GPGSV,4,1,14,30,70,350,27,12,61,079,24,29,53,270,24,24,43,177,39*76
$GPGSV,4,2,14,02,38,055,36,33,27,238,,09,22,168,31,31,18,319,24*78
$GPGSV,4,3,14,14,12,259,23,27,12,164,,21,12,200,,10,09,112,*7F
$GPGSV,4,4,14,04,08,039,,26,05,220,*7B
$GPRMC,154210.000,A,3624.0964,N,02805.3405,E,0.27,0.00,040809,,,A*68
$GPGGA,154211.000,3624.0965,N,02805.3404,E,1,8,0.97,-3.8,M,33.2,M,,*79
$GPGSA,A,3,12,29,24,02,30,31,14,09,,,,,1.29,0.97,0.85*0A
$GPGSV,4,1,14,30,70,350,27,12,61,079,25,29,53,270,25,24,43,177,39*76
$GPGSV,4,2,14,02,38,055,36,33,27,238,,09,22,168,32,31,18,319,24*7B
$GPGSV,4,3,14,14,12,259,23,27,12,164,,21,12,200,,10,09,112,*7F
$GPGSV,4,4,14,04,08,039,,26,05,220,*7B
$GPRMC,154211.000,A,3624.0965,N,02805.3404,E,0.28,0.00,040809,,,A*66
$GPGGA,154212.000,3624.0965,N,02805.3404,E,1,8,0.97,-3.8,M,33.2,M,,*7A
$GPGSA,A,3,12,29,24,02,30,31,14,09,,,,,1.29,0.97,0.85*0A
$GPGSV,4,1,14,30,70,350,27,12,61,079,26,29,53,270,25,24,43,177,39*75
$GPGSV,4,2,14,02,38,055,36,33,27,238,,09,22,168,32,31,18,319,23*7C
$GPGSV,4,3,14,14,12,259,24,27,12,164,,21,12,200,,10,09,112,*78
$GPGSV,4,4,14,04,08,039,,26,05,220,*7B
$GPRMC,154212.000,A,3624.0965,N,02805.3404,E,0.24,0.00,040809,,,A*69
$GPGGA,154213.000,3624.0965,N,02805.3403,E,1,8,0.97,-3.8,M,33.2,M,,*7C
$GPGSA,A,3,12,29,24,02,30,31,14,09,,,,,1.29,0.97,0.85*0A
$GPGSV,4,1,14,30,70,350,27,12,61,079,27,29,53,270,26,24,43,177,39*77
$GPGSV,4,2,14,02,38,055,36,09,22,168,32,31,18,319,23,14,12,259,24*7E
$GPGSV,4,3,14,27,12,164,,21,12,200,,10,09,112,,04,08,039,*70
$GPGSV,4,4,14,26,05,220,,34,,,*4A
$GPRMC,154213.000,A,3624.0965,N,02805.3403,E,0.13,0.00,040809,,,A*6B
$GPGGA,154214.000,3624.0966,N,02805.3403,E,1,8,0.97,-3.7,M,33.2,M,,*77
$GPGSA,A,3,12,29,24,02,30,31,14,09,,,,,1.29,0.97,0.85*0A
$GPGSV,4,1,14,30,70,350,27,12,61,079,19,29,53,270,26,24,43,177,39*7A
$GPGSV,4,2,14,02,38,055,36,09,22,168,32,31,18,319,22,14,12,259,24*7F
$GPGSV,4,3,14,27,12,164,,21,12,200,,10,09,112,,04,08,039,*70
$GPGSV,4,4,14,26,05,220,,34,,,*4A
$GPRMC,154214.000,A,3624.0966,N,02805.3403,E,0.11,308.43,040809,,,A*61
$GPGGA,154215.000,3624.0966,N,02805.3402,E,1,8,0.97,-3.7,M,33.2,M,,*77
$GPGSA,A,3,12,29,24,02,30,31,14,09,,,,,1.29,0.97,0.85*0A
$GPGSV,4,1,14,30,70,350,27,12,61,079,19,29,53,270,27,24,43,177,39*7B
$GPGSV,4,2,14,02,38,055,36,09,22,168,32,31,18,319,22,14,12,259,24*7F
$GPGSV,4,3,14,27,12,164,,21,12,200,,10,09,112,,04,08,039,*70
$GPGSV,4,4,14,26,05,220,,34,,,*4A
$GPRMC,154215.000,A,3624.0966,N,02805.3402,E,0.07,308.43,040809,,,A*66
$GPGGA,154216.000,3624.0966,N,02805.3402,E,1,8,0.97,-3.7,M,33.2,M,,*74
$GPGSA,A,3,12,29,24,02,30,31,14,09,,,,,1.29,0.97,0.85*0A
$GPGSV,4,1,14,30,70,350,27,12,61,079,20,29,53,270,27,24,43,177,39*71
$GPGSV,4,2,14,02,38,055,36,09,22,168,32,31,18,319,22,14,12,259,24*7F
$GPGSV,4,3,14,27,12,164,,21,12,200,,10,09,112,,04,08,039,*70
$GPGSV,4,4,14,26,05,220,,34,,,*4A
$GPRMC,154216.000,A,3624.0966,N,02805.3402,E,0.12,308.43,040809,,,A*61
$GPGGA,154217.000,3624.0966,N,02805.3402,E,1,8,0.97,-3.7,M,33.2,M,,*75
$GPGSA,A,3,12,29,24,02,30,31,14,09,,,,,1.29,0.97,0.85*0A
$GPGSV,4,1,14,30,70,350,27,12,61,079,21,29,53,270,26,24,43,177,39*71
$GPGSV,4,2,14,02,38,055,36,09,22,168,32,31,18,319,23,14,12,259,24*7E
$GPGSV,4,3,14,27,12,164,,21,12,200,,10,09,112,,04,08,039,*70
$GPGSV,4,4,14,26,05,220,,34,,,*4A
$GPRMC,154217.000,A,3624.0966,N,02805.3402,E,0.11,308.43,040809,,,A*63
$GPGGA,154218.000,3624.0966,N,02805.3402,E,1,8,0.97,-3.7,M,33.2,M,,*7A
$GPGSA,A,3,12,29,24,02,30,31,14,09,,,,,1.29,0.97,0.85*0A
$GPGSV,4,1,14,30,70,350,27,12,61,079,21,29,53,270,26,24,43,177,39*71
$GPGSV,4,2,14,02,38,055,36,09,22,168,32,31,18,319,23,14,12,259,24*7E
$GPGSV,4,3,14,27,12,164,,21,12,200,,10,09,112,,04,08,039,*70
$GPGSV,4,4,14,26,05,220,,34,,,*4A
$GPRMC,154218.000,A,3624.0966,N,02805.3402,E,0.09,308.43,040809,,,A*65
$GPGGA,154219.000,3624.0967,N,02805.3401,E,1,8,0.97,-3.7,M,33.2,M,,*79
$GPGSA,A,3,12,29,24,02,30,31,14,09,,,,,1.29,0.97,0.85*0A
$GPGSV,4,1,14,30,70,350,28,12,61,079,21,29,53,270,27,24,43,177,39*7F
$GPGSV,4,2,14,02,38,055,35,09,22,168,32,31,18,319,24,14,12,259,24*7A
$GPGSV,4,3,14,27,12,164,,21,12,200,,10,09,112,,04,08,039,*70
$GPGSV,4,4,14,26,05,220,,34,,,*4A
$GPRMC,154219.000,A,3624.0967,N,02805.3401,E,0.11,308.43,040809,,,A*6F
$GPGGA,154220.000,3624.0967,N,02805.3401,E,1,8,0.97,-3.6,M,33.2,M,,*72
$GPGSA,A,3,12,29,24,02,30,31,14,09,,,,,1.29,0.97,0.85*0A
$GPGSV,4,1,14,30,70,350,29,12,61,079,20,29,53,270,27,24,43,177,39*7F
$GPGSV,4,2,14,02,38,055,35,09,22,168,32,31,18,319,24,14,12,259,24*7A
$GPGSV,4,3,14,21,12,200,,27,11,164,,10,09,112,,04,08,039,*73
$GPGSV,4,4,14,26,05,220,,36,,,*48
$GPRMC,154220.000,A,3624.0967,N,02805.3401,E,0.09,308.43,040809,,,A*6C
$GPGGA,154221.000,3624.0967,N,02805.3401,E,1,8,0.97,-3.6,M,33.2,M,,*73
$GPGSA,A,3,12,29,24,02,30,31,14,09,,,,,1.29,0.97,0.85*0A
$GPGSV,4,1,14,30,70,350,29,12,61,079,20,29,53,270,27,24,43,177,39*7F
$GPGSV,4,2,14,02,38,055,35,09,22,168,32,31,18,319,24,14,12,259,24*7A
$GPGSV,4,3,14,21,12,200,,27,11,164,,10,09,112,,04,08,039,*73
$GPGSV,4,4,14,26,05,220,,36,,,*48
$GPRMC,154221.000,A,3624.0967,N,02805.3401,E,0.10,308.43,040809,,,A*65
$GPGGA,154222.000,3624.0967,N,02805.3402,E,1,8,0.97,-3.6,M,33.2,M,,*73
$GPGSA,A,3,12,29,24,02,30,31,14,09,,,,,1.29,0.97,0.85*0A
$GPGSV,4,1,14,30,70,350,29,12,61,079,21,29,54,270,27,24,43,177,39*79
$GPGSV,4,2,14,02,38,055,35,09,22,168,32,31,18,319,24,14,12,259,23*7D
$GPGSV,4,3,14,21,12,200,,27,11,164,,10,09,112,,04,08,039,*73
$GPGSV,4,4,14,26,05,220,,36,,,*48
$GPRMC,154222.000,A,3624.0967,N,02805.3402,E,0.08,308.43,040809,,,A*6C
$GPGGA,154223.000,3624.0967,N,02805.3402,E,1,8,0.97,-3.6,M,33.2,M,,*72
$GPGSA,A,3,12,29,24,02,30,31,14,09,,,,,1.29,0.97,0.85*0A
$GPGSV,4,1,14,30,71,350,28,12,61,079,22,29,54,270,27,24,43,177,39*7A
$GPGSV,4,2,14,02,38,055,35,09,22,168,32,31,18,319,24,14,12,259,23*7D
$GPGSV,4,3,14,21,12,200,,27,11,164,,10,09,112,,04,08,039,*73
$GPGSV,4,4,14,26,05,220,,36,,,*48
$GPRMC,154223.000,A,3624.0967,N,02805.3402,E,0.16,308.43,040809,,,A*62
$GPGGA,154224.000,3624.0967,N,02805.3402,E,1,8,0.97,-3.6,M,33.2,M,,*75
$GPGSA,A,3,12,29,24,02,30,31,14,09,,,,,1.29,0.97,0.85*0A
$GPGSV,4,1,14,30,71,350,27,12,61,079,23,29,54,270,26,24,43,177,39*75
$GPGSV,4,2,14,02,38,055,35,09,22,168,32,31,18,319,24,14,12,259,23*7D
$GPGSV,4,3,14,21,12,200,,27,11,164,,10,09,112,,04,08,039,*73
$GPGSV,4,4,14,26,05,220,,36,,,*48
$GPRMC,154224.000,A,3624.0967,N,02805.3402,E,0.22,308.43,040809,,,A*62
$GPGGA,154225.000,3624.0967,N,02805.3403,E,1,8,0.97,-3.5,M,33.2,M,,*76
$GPGSA,A,3,12,29,24,02,30,31,14,09,,,,,1.29,0.97,0.85*0A
$GPGSV,4,1,14,30,71,350,27,12,61,079,24,29,54,270,26,24,43,177,39*72
$GPGSV,4,2,14,02,38,055,35,09,22,168,32,31,18,319,24,14,12,259,23*7D
$GPGSV,4,3,14,21,12,200,,27,11,164,,10,09,112,,04,08,039,*73
$GPGSV,4,4,14,26,05,220,,36,,,*48
$GPRMC,154225.000,A,3624.0967,N,02805.3403,E,0.03,308.43,040809,,,A*61
$GPGGA,154226.000,3624.0967,N,02805.3402,E,1,8,0.97,-3.5,M,33.2,M,,*74
$GPGSA,A,3,12,29,24,02,30,31,14,09,,,,,1.29,0.97,0.85*0A
$GPGSV,4,1,14,30,71,350,27,12,61,079,24,29,54,270,25,24,43,177,39*71
$GPGSV,4,2,14,02,38,055,34,09,22,168,32,31,18,319,24,14,12,259,23*7C
$GPGSV,4,3,14,21,12,200,,27,11,164,,10,09,112,,04,08,039,*73
$GPGSV,4,4,14,26,05,220,,38,,,*46
$GPRMC,154226.000,A,3624.0967,N,02805.3402,E,0.34,308.43,040809,,,A*67
$GPGGA,154227.000,3624.0968,N,02805.3402,E,1,8,1.03,-3.5,M,33.2,M,,*76
$GPGSA,A,3,12,29,24,02,30,31,14,09,,,,,1.90,1.03,1.59*04
$GPGSV,4,1,14,30,71,350,26,12,61,079,23,29,54,270,25,24,43,177,39*77
$GPGSV,4,2,14,02,38,055,34,09,22,168,32,31,18,319,24,14,12,259,23*7C
$GPGSV,4,3,14,21,12,200,,27,11,164,,10,09,112,,04,08,039,*73
$GPGSV,4,4,14,26,05,220,,38,,,*46
$GPRMC,154227.000,A,3624.0968,N,02805.3402,E,0.40,308.43,040809,,,A*6A
$GPGGA,154228.000,3624.0969,N,02805.3402,E,1,8,1.03,-3.5,M,33.2,M,,*78
$GPGSA,A,3,12,29,24,02,30,31,14,09,,,,,1.90,1.03,1.59*04
$GPGSV,4,1,14,30,71,350,26,12,61,079,22,29,54,270,24,24,43,177,39*77
$GPGSV,4,2,14,02,38,055,34,09,22,168,32,31,18,319,24,14,12,259,23*7C
$GPGSV,4,3,14,21,12,200,,27,11,164,,10,09,112,,04,08,039,*73
$GPGSV,4,4,14,26,05,220,,38,,,*46
$GPRMC,154228.000,A,3624.0969,N,02805.3402,E,0.38,345.75,040809,,,A*67
$GPGGA,154229.000,3624.0970,N,02805.3402,E,1,8,0.97,-3.5,M,33.2,M,,*7D
$GPGSA,A,3,12,29,24,02,30,31,14,09,,,,,1.29,0.97,0.85*0A
$GPGSV,4,1,14,30,71,350,26,12,61,079,22,29,54,270,24,24,43,177,39*77
$GPGSV,4,2,14,02,38,055,34,09,22,168,32,31,18,319,24,14,12,259,23*7C
$GPGSV,4,3,14,21,12,200,,27,11,164,,10,09,112,,04,07,039,*7C
$GPGSV,4,4,14,26,05,220,,38,,,*46
$GPRMC,154229.000,A,3624.0970,N,02805.3402,E,0.30,334.71,040809,,,A*64
$GPGGA,154230.000,3624.0970,N,02805.3401,E,1,8,0.97,-3.5,M,33.2,M,,*76
$GPGSA,A,3,12,29,24,02,30,31,14,09,,,,,1.29,0.97,0.85*0A
$GPGSV,4,1,14,30,71,350,26,12,61,079,22,29,54,270,23,24,43,177,39*70
$GPGSV,4,2,14,02,38,055,34,09,22,168,32,31,18,319,24,14,12,259,22*7D
$GPGSV,4,3,14,21,12,200,,27,11,164,,10,09,112,,04,07,039,*7C
$GPGSV,4,4,14,26,05,220,,38,,,*46
$GPRMC,154230.000,A,3624.0970,N,02805.3401,E,0.18,337.13,040809,,,A*62
$GPGGA,154231.000,3624.0971,N,02805.3401,E,1,8,1.03,-3.5,M,33.2,M,,*7A
$GPGSA,A,3,12,29,24,02,30,31,14,09,,,,,1.90,1.03,1.59*04
$GPGSV,4,1,14,30,71,350,26,12,61,079,22,29,54,270,22,24,43,177,39*71
$GPGSV,4,2,14,02,38,055,34,09,22,168,32,31,18,319,24,14,12,259,21*7E
$GPGSV,4,3,14,21,12,200,,27,11,164,,10,09,112,,04,07,039,*7C
$GPGSV,4,4,14,26,05,220,,38,,,*46
$GPRMC,154231.000,A,3624.0971,N,02805.3401,E,0.16,337.13,040809,,,A*6C
$GPGGA,154232.000,3624.0971,N,02805.3401,E,1,8,0.97,-3.5,M,33.2,M,,*75
$GPGSA,A,3,12,29,24,02,30,31,14,09,,,,,1.29,0.97,0.85*0A
$GPGSV,4,1,14,30,71,350,26,12,61,079,22,29,54,270,21,24,43,177,39*72
$GPGSV,4,2,14,02,38,055,34,09,22,168,32,31,18,319,24,14,12,259,21*7E
$GPGSV,4,3,14,21,12,200,,27,11,164,,10,09,112,,04,07,039,*7C
$GPGSV,4,4,14,26,05,220,,40,,,*49
$GPRMC,154232.000,A,3624.0971,N,02805.3401,E,0.18,337.13,040809,,,A*61
$GPGGA,154233.000,3624.0971,N,02805.3401,E,1,8,1.03,-3.5,M,33.2,M,,*78
$GPGSA,A,3,12,29,24,02,30,31,14,09,,,,,1.90,1.03,1.59*04
$GPGSV,4,1,14,30,71,350,27,12,61,079,21,29,54,270,21,24,43,177,39*70
$GPGSV,4,2,14,02,38,055,34,09,22,168,32,31,18,319,24,14,12,259,21*7E
$GPGSV,4,3,14,21,12,200,,27,11,164,,10,09,112,,04,07,039,*7C
$GPGSV,4,4,14,26,05,220,,40,,,*49
$GPRMC,154233.000,A,3624.0971,N,02805.3401,E,0.26,1.70,040809,,,A*6E
$GPGGA,154234.000,3624.0972,N,02805.3402,E,1,8,1.03,-3.5,M,33.2,M,,*7F
$GPGSA,A,3,12,29,24,02,30,31,14,09,,,,,1.90,1.03,1.59*04
$GPGSV,4,1,14,30,71,350,27,12,61,079,21,29,54,270,22,24,43,177,39*73
$GPGSV,4,2,14,02,38,055,34,09,22,168,32,31,18,319,24,14,12,259,21*7E
$GPGSV,4,3,14,21,12,200,,27,11,164,,10,09,112,,04,07,039,*7C
$GPGSV,4,4,14,26,05,220,,40,,,*49
$GPRMC,154234.000,A,3624.0972,N,02805.3402,E,0.21,5.98,040809,,,A*6C
$GPGGA,154235.000,3624.0973,N,02805.3402,E,1,8,0.97,-3.5,M,33.2,M,,*73
$GPGSA,A,3,12,29,24,02,30,31,14,09,,,,,1.29,0.97,0.85*0A
$GPGSV,4,1,14,30,71,350,27,12,61,079,22,29,54,270,23,24,43,177,39*71
$GPGSV,4,2,14,02,38,055,34,09,22,168,32,31,18,319,25,14,12,259,21*7F
$GPGSV,4,3,14,21,12,200,,27,11,164,,10,09,111,,04,07,039,*7F
$GPGSV,4,4,14,26,05,220,,40,,,*49
$GPRMC,154235.000,A,3624.0973,N,02805.3402,E,0.22,15.25,040809,,,A*58
$GPGGA,154236.000,3624.0973,N,02805.3402,E,1,8,0.97,-3.5,M,33.2,M,,*70
$GPGSA,A,3,12,29,24,02,30,31,14,09,,,,,1.29,0.97,0.85*0A
$GPGSV,4,1,14,30,71,350,27,12,61,079,22,29,54,270,24,24,43,177,39*76
$GPGSV,4,2,14,02,38,055,34,09,22,168,32,31,18,319,25,14,12,259,21*7F
$GPGSV,4,3,14,21,12,200,,27,11,164,,10,09,111,,04,07,039,*7F
$GPGSV,4,4,14,26,05,220,,40,,,*49
$GPRMC,154236.000,A,3624.0973,N,02805.3402,E,0.20,26.58,040809,,,A*53
$GPGGA,154237.000,3624.0973,N,02805.3403,E,1,8,0.97,-3.6,M,33.2,M,,*73
$GPGSA,A,3,12,29,24,02,30,31,14,09,,,,,1.29,0.97,0.85*0A
$GPGSV,4,1,14,30,71,350,27,12,61,079,23,29,54,270,25,24,43,177,39*76
$GPGSV,4,2,14,02,38,055,34,09,22,168,32,31,18,319,26,14,12,259,21*7C
$GPGSV,4,3,14,21,12,200,,27,11,164,,10,09,111,,04,07,039,*7F
$GPGSV,4,4,14,26,05,220,,40,,,*49
$GPRMC,154237.000,A,3624.0973,N,02805.3403,E,0.27,26.58,040809,,,A*54
$GPGGA,154238.000,3624.0973,N,02805.3404,E,1,8,0.97,-3.6,M,33.2,M,,*7B
$GPGSA,A,3,12,29,24,02,30,31,14,09,,,,,1.29,0.97,0.85*0A
$GPGSV,4,1,14,30,71,350,28,12,61,079,23,29,54,270,25,24,43,177,39*79
$GPGSV,4,2,14,02,38,055,35,09,22,168,32,31,18,319,26,14,12,259,21*7D
$GPGSV,4,3,14,21,12,200,,27,11,164,,10,09,111,,04,07,039,*7F
$GPGSV,4,4,14,26,05,220,,40,,,*49
$GPRMC,154238.000,A,3624.0973,N,02805.3404,E,0.10,26.58,040809,,,A*58
$GPGGA,154239.000,3624.0973,N,02805.3404,E,1,8,0.97,-3.6,M,33.2,M,,*7A
$GPGSA,A,3,12,29,24,02,30,31,14,09,,,,,1.29,0.97,0.85*0A
$GPGSV,4,1,14,30,71,350,28,12,61,079,22,29,54,270,25,24,43,177,39*78
$GPGSV,4,2,14,02,38,055,36,09,22,168,32,31,18,319,26,14,12,259,21*7E
$GPGSV,4,3,14,21,12,200,,27,11,164,,10,09,111,,04,07,039,*7F
$GPGSV,4,4,14,26,05,220,,41,,,*48
$GPRMC,154239.000,A,3624.0973,N,02805.3404,E,0.32,26.58,040809,,,A*59
$GPGGA,154240.000,3624.0973,N,02805.3404,E,1,8,0.97,-3.6,M,33.2,M,,*74
$GPGSA,A,3,12,29,24,02,30,31,14,09,,,,,1.29,0.97,0.85*0A
$GPGSV,4,1,14,30,71,350,28,12,61,079,22,29,54,270,25,24,43,177,39*78
$GPGSV,4,2,14,02,38,055,36,09,22,168,32,31,18,319,26,14,12,259,22*7D
$GPGSV,4,3,14,21,12,200,,27,11,164,,10,09,111,,04,07,039,*7F
$GPGSV,4,4,14,26,05,220,,41,,,*48
$GPRMC,154240.000,A,3624.0973,N,02805.3404,E,0.29,26.58,040809,,,A*5D
$GPGGA,154241.000,3624.0974,N,02805.3404,E,1,8,0.97,-3.6,M,33.2,M,,*72
$GPGSA,A,3,12,29,24,02,30,31,14,09,,,,,1.29,0.97,0.85*0A
$GPGSV,4,1,14,30,71,350,28,12,61,079,22,29,54,270,24,24,43,177,39*79
$GPGSV,4,2,14,02,38,055,36,09,22,168,31,31,18,319,26,14,12,259,23*7F
$GPGSV,4,3,14,21,12,200,,27,11,164,,10,09,111,,04,07,039,*7F
$GPGSV,4,4,14,26,05,220,,41,,,*48
$GPRMC,154241.000,A,3624.0974,N,02805.3404,E,0.14,26.58,040809,,,A*55
$GPGGA,154242.000,3624.0974,N,02805.3403,E,1,7,1.02,-3.6,M,33.2,M,,*74
$GPGSA,A,3,29,24,02,30,31,14,09,,,,,,1.33,1.02,0.85*0F
$GPGSV,4,1,14,30,71,350,27,12,61,079,20,29,54,270,24,24,43,177,39*74
$GPGSV,4,2,14,02,38,055,37,09,22,168,32,31,18,319,26,14,12,259,24*7A
$GPGSV,4,3,14,21,12,200,,27,11,164,,10,09,111,,04,07,039,*7F
$GPGSV,4,4,14,26,05,220,,41,,,*48
$GPRMC,154242.000,A,3624.0974,N,02805.3403,E,0.05,26.58,040809,,,A*51
$GPGGA,154243.000,3624.0974,N,02805.3403,E,1,7,1.02,-3.6,M,33.2,M,,*75
$GPGSA,A,3,29,24,02,30,31,14,09,,,,,,1.33,1.02,0.85*0F
$GPGSV,4,1,14,30,71,350,28,12,61,079,19,29,54,270,24,24,43,177,39*71
$GPGSV,4,2,14,02,38,055,38,09,22,168,32,31,18,319,26,14,12,259,25*74
$GPGSV,4,3,14,21,12,200,,27,11,164,,10,09,111,,04,07,039,*7F
$GPGSV,4,4,14,26,05,220,,41,,,*48
$GPRMC,154243.000,A,3624.0974,N,02805.3403,E,0.33,26.58,040809,,,A*55
$GPGGA,154244.000,3624.0975,N,02805.3403,E,1,8,0.97,-3.6,M,33.2,M,,*71
$GPGSA,A,3,12,29,24,02,30,31,14,09,,,,,1.29,0.97,0.85*0A
$GPGSV,4,1,14,30,71,350,28,12,61,079,19,29,54,270,24,24,43,177,39*71
$GPGSV,4,2,14,02,38,055,38,09,22,168,32,31,18,319,26,14,12,259,26*77
$GPGSV,4,3,14,21,12,200,,27,11,164,,10,09,111,,04,07,039,*7F
$GPGSV,4,4,14,26,05,220,,41,,,*48
$GPRMC,154244.000,A,3624.0975,N,02805.3403,E,0.21,26.58,040809,,,A*50
$GPGGA,154245.000,3624.0975,N,02805.3402,E,1,8,0.97,-3.6,M,33.2,M,,*71
$GPGSA,A,3,12,29,24,02,30,31,14,09,,,,,1.29,0.97,0.85*0A
$GPGSV,4,1,14,30,71,350,28,12,61,079,19,29,54,270,25,24,43,177,39*70
$GPGSV,4,2,14,02,38,055,38,09,22,168,33,31,18,319,26,14,12,259,26*76
$GPGSV,4,3,14,21,12,200,,27,11,164,,10,09,111,,04,07,039,*7F
$GPGSV,4,4,14,26,05,220,,43,,,*4A
$GPRMC,154245.000,A,3624.0975,N,02805.3402,E,0.11,26.58,040809,,,A*53
$GPGGA,154246.000,3624.0975,N,02805.3402,E,1,8,0.97,-3.6,M,33.2,M,,*72
$GPGSA,A,3,12,29,24,02,30,31,14,09,,,,,1.29,0.97,0.85*0A
$GPGSV,4,1,14,30,71,350,28,12,61,079,19,29,54,270,26,24,43,177,39*73
$GPGSV,4,2,14,02,38,055,38,09,22,168,33,31,18,319,26,14,12,259,26*76
$GPGSV,4,3,14,21,12,200,,27,11,164,,10,09,111,,04,07,039,*7F
$GPGSV,4,4,14,26,05,220,,43,,,*4A
$GPRMC,154246.000,A,3624.0975,N,02805.3402,E,0.11,26.58,040809,,,A*50
$GPGGA,154247.000,3624.0975,N,02805.3402,E,1,8,0.97,-3.6,M,33.2,M,,*73
$GPGSA,A,3,12,29,24,02,30,31,14,09,,,,,1.29,0.97,0.85*0A
$GPGSV,4,1,14,30,71,350,28,12,61,079,20,29,54,270,26,24,43,177,39*79
$GPGSV,4,2,14,02,38,055,38,09,22,168,33,31,18,319,25,14,12,259,26*75
$GPGSV,4,3,14,21,12,200,,27,11,164,,10,09,111,,04,07,039,*7F
$GPGSV,4,4,14,26,05,220,,43,,,*4A
$GPRMC,154247.000,A,3624.0975,N,02805.3402,E,0.35,26.58,040809,,,A*57
$GPGGA,154248.000,3624.0975,N,02805.3403,E,1,8,0.97,-3.6,M,33.2,M,,*7D
$GPGSA,A,3,12,29,24,02,30,31,14,09,,,,,1.29,0.97,0.85*0A
$GPGSV,4,1,14,30,71,350,28,12,61,079,20,29,54,270,25,24,43,177,38*7B
$GPGSV,4,2,14,02,38,055,38,09,22,168,33,31,18,319,25,14,12,259,26*75
$GPGSV,4,3,14,21,12,200,,27,11,164,,10,09,111,,04,07,039,*7F
$GPGSV,4,4,14,26,05,220,,43,,,*4A
$GPRMC,154248.000,A,3624.0975,N,02805.3403,E,0.36,26.58,040809,,,A*5A
$GPGGA,154249.000,3624.0975,N,02805.3404,E,1,8,0.97,-3.6,M,33.2,M,,*7B
$GPGSA,A,3,12,29,24,02,30,31,14,09,,,,,1.29,0.97,0.85*0A
$GPGSV,4,1,14,30,71,350,27,12,61,079,20,29,54,270,26,24,43,177,38*77
$GPGSV,4,2,14,02,38,055,38,09,22,168,33,31,18,319,25,14,12,259,27*74
$GPGSV,4,3,14,21,12,200,,27,11,164,,10,09,111,,04,07,039,*7F
$GPGSV,4,4,14,26,05,220,,43,,,*4A
$GPRMC,154249.000,A,3624.0975,N,02805.3404,E,0.48,103.59,040809,,,A*62
$GPGGA,154250.000,3624.0974,N,02805.3406,E,1,7,1.02,-3.6,M,33.2,M,,*72
$GPGSA,A,3,29,24,02,30,31,14,09,,,,,,1.33,1.02,0.85*0F
$GPGSV,4,1,14,30,71,350,26,12,61,079,19,29,54,270,26,24,43,177,38*7C
$GPGSV,4,2,14,02,38,055,39,09,22,168,33,31,18,319,25,14,12,259,27*75
$GPGSV,4,3,14,21,12,200,,27,11,164,,10,09,111,,04,07,039,*7F
$GPGSV,4,4,14,26,05,220,,43,,,*4A
$GPRMC,154250.000,A,3624.0974,N,02805.3406,E,0.51,108.07,040809,,,A*61
$GPGGA,154251.000,3624.0974,N,02805.3408,E,1,7,1.02,-3.6,M,33.2,M,,*7D
$GPGSA,A,3,29,24,02,30,31,14,09,,,,,,1.33,1.02,0.85*0F
$GPGSV,4,1,14,30,71,350,26,12,61,079,19,29,54,270,26,24,43,177,38*7C
$GPGSV,4,2,14,02,38,055,39,09,22,168,33,31,18,319,25,14,12,259,27*75
$GPGSV,4,3,14,21,12,200,,27,11,164,,10,09,111,,04,07,039,*7F
$GPGSV,4,4,14,26,05,219,,43,,,*40
$GPRMC,154251.000,A,3624.0974,N,02805.3408,E,0.04,106.49,040809,,,A*6A
$GPGGA,154252.000,3624.0974,N,02805.3408,E,1,8,0.97,-3.6,M,33.2,M,,*7C
$GPGSA,A,3,12,29,24,02,30,31,14,09,,,,,1.29,0.97,0.85*0A
$GPGSV,4,1,14,30,71,350,26,12,61,079,20,29,54,270,27,24,43,177,38*77
$GPGSV,4,2,14,02,38,055,39,09,22,168,33,31,18,319,25,14,12,259,27*75
$GPGSV,4,3,14,21,12,200,,27,11,164,,10,09,111,,04,07,039,*7F
$GPGSV,4,4,14,26,05,219,,45,,,*46
$GPRMC,154252.000,A,3624.0974,N,02805.3408,E,0.22,106.49,040809,,,A*6D
$GPGGA,154253.000,3624.0974,N,02805.3407,E,1,7,1.02,-3.6,M,33.2,M,,*70
$GPGSA,A,3,29,24,02,30,31,14,09,,,,,,1.33,1.02,0.85*0F
$GPGSV,4,1,14,30,71,350,25,12,61,079,19,29,54,270,28,24,43,177,38*71
$GPGSV,4,2,14,02,38,055,39,09,22,168,33,31,18,319,25,14,12,259,27*75
$GPGSV,4,3,14,21,12,200,,27,11,164,,10,09,111,,04,07,039,*7F
$GPGSV,4,4,14,26,05,219,,45,,,*46
$GPRMC,154253.000,A,3624.0974,N,02805.3407,E,0.31,106.49,040809,,,A*61
$GPGGA,154254.000,3624.0974,N,02805.3406,E,1,8,0.97,-3.6,M,33.2,M,,*74
$GPGSA,A,3,12,29,24,02,30,31,14,09,,,,,1.29,0.97,0.85*0A
$GPGSV,4,1,14,30,71,350,25,12,61,079,19,29,54,271,27,24,43,177,38*7F
$GPGSV,4,2,14,02,38,055,37,09,22,168,33,31,18,319,25,14,12,259,26*7A
$GPGSV,4,3,14,21,12,200,,27,11,164,,10,09,111,,04,07,039,*7F
$GPGSV,4,4,14,26,05,219,,45,,,*46
$GPRMC,154254.000,A,3624.0974,N,02805.3406,E,0.33,106.49,040809,,,A*65
$GPGGA,154255.000,3624.0975,N,02805.3406,E,1,8,0.97,-3.6,M,33.2,M,,*74
$GPGSA,A,3,12,29,24,02,30,31,14,09,,,,,1.29,0.97,0.85*0A
$GPGSV,4,1,14,30,71,351,25,12,61,079,19,29,54,271,25,24,43,177,39*7D
$GPGSV,4,2,14,02,38,055,37,09,22,168,32,31,18,319,25,14,12,259,26*7B
$GPGSV,4,3,14,21,12,200,,27,11,164,,10,09,111,,04,07,039,*7F
$GPGSV,4,4,14,26,05,219,,45,,,*46
$GPRMC,154255.000,A,3624.0975,N,02805.3406,E,0.30,106.49,040809,,,A*66
$GPGGA,154256.000,3624.0976,N,02805.3405,E,1,8,0.97,-3.6,M,33.2,M,,*77
$GPGSA,A,3,12,29,24,02,30,31,14,09,,,,,1.29,0.97,0.85*0A
$GPGSV,4,1,14,30,71,351,24,12,61,079,20,29,54,271,26,24,43,177,39*75
$GPGSV,4,2,14,02,38,055,37,09,22,168,32,31,18,319,25,14,12,259,25*78
$GPGSV,4,3,14,21,12,200,,27,11,164,,10,09,111,,04,07,039,*7F
$GPGSV,4,4,14,26,05,219,,45,,,*46
$GPRMC,154256.000,A,3624.0976,N,02805.3405,E,0.13,106.49,040809,,,A*64
$GPGGA,154257.000,3624.0976,N,02805.3405,E,1,8,1.03,-3.7,M,33.2,M,,*7B
$GPGSA,A,3,12,29,24,02,30,31,14,09,,,,,1.89,1.03,1.59*0C
$GPGSV,4,1,14,30,71,351,25,12,61,079,21,29,54,271,26,24,43,177,39*75
$GPGSV,4,2,14,02,38,055,36,09,22,168,32,31,18,319,25,14,12,259,25*79
$GPGSV,4,3,14,21,12,200,,27,11,164,,10,09,111,,04,07,039,*7F
$GPGSV,4,4,14,26,05,219,,45,,,*46
$GPRMC,154257.000,A,3624.0976,N,02805.3405,E,0.08,106.49,040809,,,A*6F
$GPGGA,154258.000,3624.0976,N,02805.3405,E,1,8,0.97,-3.7,M,33.2,M,,*78
$GPGSA,A,3,12,29,24,02,30,31,14,09,,,,,1.29,0.97,0.85*0A
$GPGSV,4,1,14,30,71,351,25,12,61,079,21,29,54,271,26,24,43,177,39*75
$GPGSV,4,2,14,02,38,055,36,09,22,168,32,31,18,319,26,14,12,259,25*7A
$GPGSV,4,3,14,21,12,200,,27,11,164,,10,09,111,,04,07,039,*7F
$GPGSV,4,4,14,26,05,219,,46,,,*45
$GPRMC,154258.000,A,3624.0976,N,02805.3405,E,0.05,106.49,040809,,,A*6D
$GPGGA,154259.000,3624.0976,N,02805.3405,E,1,8,0.97,-3.7,M,33.2,M,,*79
$GPGSA,A,3,12,29,24,02,30,31,14,09,,,,,1.29,0.97,0.85*0A
$GPGSV,4,1,14,30,71,351,24,12,61,079,20,29,54,271,26,24,43,177,39*75
$GPGSV,4,2,14,02,38,055,36,09,22,168,32,31,18,319,26,14,12,259,24*7B
$GPGSV,4,3,14,21,12,200,,27,11,164,,10,09,111,,04,07,039,*7F
$GPGSV,4,4,14,26,05,219,,46,,,*45
$GPRMC,154259.000,A,3624.0976,N,02805.3405,E,0.04,106.49,040809,,,A*6D
$GPGGA,154300.000,3624.0976,N,02805.3405,E,1,8,0.97,-3.7,M,33.2,M,,*74
$GPGSA,A,3,12,29,24,02,30,31,14,09,,,,,1.29,0.97,0.85*0A
$GPGSV,4,1,14,30,71,351,23,12,61,079,19,29,54,271,27,24,43,177,39*79
$GPGSV,4,2,14,02,38,055,36,09,22,168,32,31,18,319,26,14,12,259,24*7B
$GPGSV,4,3,14,21,12,200,,27,11,164,,10,09,111,,04,07,039,*7F
$GPGSV,4,4,14,26,05,219,,46,,,*45
$GPRMC,154300.000,A,3624.0976,N,02805.3405,E,0.07,106.49,040809,,,A*63
$GPGGA,154301.000,3624.0976,N,02805.3405,E,1,8,0.97,-3.7,M,33.2,M,,*75
$GPGSA,A,3,12,29,24,02,30,31,14,09,,,,,1.29,0.97,0.85*0A
$GPGSV,4,1,14,30,71,351,23,12,61,079,18,29,54,271,27,24,43,177,39*78
$GPGSV,4,2,14,02,38,055,35,09,22,168,32,31,18,319,26,14,12,259,24*78
$GPGSV,4,3,14,21,12,200,,27,11,164,,10,09,111,,04,07,039,*7F
$GPGSV,4,4,14,26,05,219,,46,,,*45
$GPRMC,154301.000,A,3624.0976,N,02805.3405,E,0.14,106.49,040809,,,A*60
$GPGGA,154302.000,3624.0977,N,02805.3406,E,1,8,0.97,-3.7,M,33.2,M,,*74
$GPGSA,A,3,12,29,24,02,30,31,14,09,,,,,1.29,0.97,0.85*0A
$GPGSV,4,1,14,30,71,351,21,12,61,079,17,29,54,271,27,24,43,177,39*75
$GPGSV,4,2,14,02,38,055,35,09,22,168,32,31,18,319,26,14,12,259,23*7F
$GPGSV,4,3,14,21,12,200,,27,11,164,,10,09,111,,04,07,039,*7F
$GPGSV,4,4,14,26,05,219,,46,,,*45
$GPRMC,154302.000,A,3624.0977,N,02805.3406,E,0.25,106.49,040809,,,A*63
$GPGGA,154303.000,3624.0977,N,02805.3406,E,1,8,0.97,-3.7,M,33.2,M,,*75
$GPGSA,A,3,12,29,24,02,30,31,14,09,,,,,1.29,0.97,0.85*0A
$GPGSV,4,1,14,30,71,351,20,12,61,079,18,29,54,271,27,24,43,177,39*7B
$GPGSV,4,2,14,02,38,055,35,09,22,168,32,31,18,319,26,14,12,259,23*7F
$GPGSV,4,3,14,21,12,200,,27,11,164,,10,09,111,,04,07,039,*7F
$GPGSV,4,4,14,26,05,219,,46,,,*45
$GPRMC,154303.000,A,3624.0977,N,02805.3406,E,0.16,106.49,040809,,,A*62
$GPGGA,154304.000,3624.0977,N,02805.3406,E,1,8,1.03,-3.7,M,33.2,M,,*7E
$GPGSA,A,3,12,29,24,02,30,31,14,09,,,,,1.89,1.03,1.58*0D
$GPGSV,4,1,14,30,71,351,19,12,61,079,18,29,54,271,28,24,43,177,39*7E
$GPGSV,4,2,14,02,38,055,35,09,22,168,32,31,18,319,26,14,12,259,23*7F
$GPGSV,4,3,14,21,12,200,,27,11,164,,10,09,111,,04,07,039,*7F
$GPGSV,4,4,14,26,05,219,,49,,,*4A
$GPRMC,154304.000,A,3624.0977,N,02805.3406,E,0.07,106.49,040809,,,A*65
$GPGGA,154305.000,3624.0977,N,02805.3406,E,1,8,1.03,-3.7,M,33.2,M,,*7F
$GPGSA,A,3,12,29,24,02,30,31,14,09,,,,,1.89,1.03,1.58*0D
$GPGSV,4,1,14,30,71,351,18,12,61,079,18,29,54,271,28,24,43,177,40*71
$GPGSV,4,2,14,02,38,055,35,09,22,168,32,31,18,319,25,14,12,259,23*7C
$GPGSV,4,3,14,21,12,200,,27,11,164,,10,09,111,,04,07,039,*7F
$GPGSV,4,4,14,26,05,219,,49,,,*4A
$GPRMC,154305.000,A,3624.0977,N,02805.3406,E,0.12,106.49,040809,,,A*60
$GPGGA,154306.000,3624.0977,N,02805.3406,E,1,8,1.03,-3.7,M,33.2,M,,*7C
$GPGSA,A,3,12,29,24,02,30,31,14,09,,,,,1.89,1.03,1.59*0C
$GPGSV,4,1,14,30,71,351,19,12,61,079,20,29,54,271,27,24,43,177,40*74
$GPGSV,4,2,14,02,38,055,35,09,21,168,32,31,18,319,25,14,12,259,23*7F
$GPGSV,4,3,14,21,12,200,,27,11,164,,10,09,111,,04,07,039,*7F
$GPGSV,4,4,14,26,05,219,,49,,,*4A
$GPRMC,154306.000,A,3624.0977,N,02805.3406,E,0.07,106.49,040809,,,A*67
$GPGGA,154307.000,3624.0977,N,02805.3405,E,1,8,1.03,-3.7,M,33.2,M,,*7E
$GPGSA,A,3,12,29,24,02,30,31,14,09,,,,,1.89,1.03,1.58*0D
$GPGSV,4,1,14,30,71,351,19,12,61,079,22,29,54,271,27,24,43,177,40*76
$GPGSV,4,2,14,02,38,055,34,09,21,168,32,31,18,319,24,14,12,259,23*7F
$GPGSV,4,3,14,21,12,200,,27,11,164,,10,09,111,,04,07,039,*7F
$GPGSV,4,4,14,26,05,219,,49,,,*4A
$GPRMC,154307.000,A,3624.0977,N,02805.3405,E,0.07,106.49,040809,,,A*65
$GPGGA,154308.000,3624.0977,N,02805.3405,E,1,8,1.03,-3.7,M,33.2,M,,*71
$GPGSA,A,3,12,29,24,02,30,31,14,09,,,,,1.89,1.03,1.58*0D
$GPGSV,4,1,14,30,71,351,20,12,61,079,24,29,54,271,27,24,43,177,40*7A
$GPGSV,4,2,14,02,38,055,33,09,21,168,32,31,18,319,24,14,12,259,24*7F
$GPGSV,4,3,14,21,12,200,,27,11,164,,10,09,111,,04,07,039,*7F
$GPGSV,4,4,14,26,05,219,,49,,,*4A
$GPRMC,154308.000,A,3624.0977,N,02805.3405,E,0.11,106.49,040809,,,A*6D
$GPGGA,154309.000,3624.0977,N,02805.3405,E,1,8,1.03,-3.7,M,33.2,M,,*70
$GPGSA,A,3,12,29,24,02,30,31,14,09,,,,,1.89,1.03,1.58*0D
$GPGSV,4,1,14,30,71,351,20,12,61,080,25,29,54,271,28,24,43,177,40*72
$GPGSV,4,2,14,02,38,055,33,09,21,168,32,31,18,319,24,14,12,259,25*7E
$GPGSV,4,3,14,21,12,200,,27,11,164,,10,09,111,,04,07,039,*7F
$GPGSV,4,4,14,26,05,219,,49,,,*4A
$GPRMC,154309.000,A,3624.0977,N,02805.3405,E,0.05,106.49,040809,,,A*69
$GPGGA,154310.000,3624.0977,N,02805.3405,E,1,8,1.03,-3.7,M,33.2,M,,*78
$GPGSA,A,3,12,29,24,02,30,31,14,09,,,,,1.89,1.03,1.58*0D
$GPGSV,4,1,14,30,71,351,21,12,61,080,25,29,54,271,28,24,43,177,40*73
$GPGSV,4,2,14,02,38,055,33,09,21,168,32,31,18,319,24,14,12,259,26*7D
$GPGSV,4,3,14,21,12,200,,27,11,164,,10,09,111,,04,07,039,*7F
$GPGSV,4,4,14,26,05,219,,49,,,*4A
$GPRMC,154310.000,A,3624.0977,N,02805.3405,E,0.06,106.49,040809,,,A*62
$GPGGA,154311.000,3624.0977,N,02805.3405,E,1,7,1.05,-3.7,M,33.2,M,,*70
$GPGSA,A,3,12,29,24,02,31,14,09,,,,,,2.13,1.05,1.85*08
$GPGSV,4,1,14,30,71,351,21,12,61,080,26,29,54,271,28,39,47,185,*71
$GPGSV,4,2,14,24,43,177,40,02,38,055,33,09,21,168,32,31,18,319,25*74
$GPGSV,4,3,14,14,12,259,26,21,12,200,,27,11,164,,10,09,111,*7A
$GPGSV,4,4,14,04,07,039,,26,05,219,*7E
$GPRMC,154311.000,A,3624.0977,N,02805.3405,E,0.09,106.49,040809,,,A*6C
$GPGGA,154312.000,3624.0977,N,02805.3405,E,1,8,1.03,-3.7,M,33.2,M,,*7A
$GPGSA,A,3,12,29,24,02,30,31,14,09,,,,,1.89,1.03,1.58*0D
$GPGSV,4,1,14,30,71,351,21,12,61,080,25,29,54,271,28,39,47,185,*72
$GPGSV,4,2,14,24,43,177,40,02,38,055,33,09,21,168,32,31,18,319,26*77
$GPGSV,4,3,14,14,12,259,26,21,12,200,,27,11,164,,10,09,111,*7A
$GPGSV,4,4,14,04,07,039,,26,05,219,*7E
$GPRMC,154312.000,A,3624.0977,N,02805.3405,E,0.04,106.49,040809,,,A*62
$GPGGA,154313.000,3624.0977,N,02805.3405,E,1,8,1.03,-3.7,M,33.2,M,,*7B
$GPGSA,A,3,12,29,24,02,30,31,14,09,,,,,1.89,1.03,1.58*0D
$GPGSV,4,1,14,30,71,351,22,12,61,080,24,29,54,271,29,39,47,185,*71
$GPGSV,4,2,14,24,43,177,40,02,38,055,33,09,21,168,32,31,18,319,27*76
$GPGSV,4,3,14,14,12,259,25,21,12,200,,27,11,164,,10,09,111,*79
$GPGSV,4,4,14,04,07,039,,26,05,219,*7E
$GPRMC,154313.000,A,3624.0977,N,02805.3405,E,0.07,106.49,040809,,,A*60
$GPGGA,154314.000,3624.0977,N,02805.3405,E,1,8,1.03,-3.7,M,33.2,M,,*7C
$GPGSA,A,3,12,29,24,02,30,31,14,09,,,,,1.89,1.03,1.58*0D
