$GPGGA,180510.000,3622.6883,N,02814.1419,E,1,7,0.97,19.5,M,33.1,M,,*66
$GPGSA,A,3,21,16,31,30,22,10,29,,,,,,1.27,0.97,0.81*0E
$GPGSV,3,1,11,21,83,301,29,29,51,067,24,24,47,045,,39,47,185,*73
$GPGSV,3,2,11,16,37,314,37,18,33,163,,30,25,152,23,31,23,242,34*77
$GPGSV,3,3,11,10,11,039,23,22,08,188,23,06,08,290,*4E
$GPRMC,180510.000,A,3622.6883,N,02814.1419,E,0.36,295.84,110809,,,A*67
$GPGGA,180511.000,3622.6876,N,02814.1421,E,1,7,0.97,20.3,M,33.1,M,,*6A
$GPGSA,A,3,21,16,31,30,22,10,29,,,,,,1.27,0.97,0.81*0E
$GPGSV,3,1,11,21,83,303,29,29,51,067,24,24,47,045,,39,47,185,*71
$GPGSV,3,2,11,16,37,314,38,18,33,163,,30,25,152,21,31,23,242,34*7A
$GPGSV,3,3,11,10,11,039,23,22,08,188,23,06,08,290,*4E
$GPRMC,180511.000,A,3622.6876,N,02814.1421,E,0.42,295.84,110809,,,A*64
$GPGGA,180512.000,3622.6875,N,02814.1423,E,1,8,0.92,20.6,M,33.1,M,,*67
$GPGSA,A,3,21,16,31,30,22,10,29,18,,,,,1.22,0.92,0.81*07
$GPGSV,3,1,11,21,83,303,29,29,51,067,25,24,47,045,,39,47,185,*70
$GPGSV,3,2,11,16,37,314,38,18,33,163,30,30,25,152,21,31,23,242,35*78
$GPGSV,3,3,11,10,11,039,22,22,08,188,22,06,08,290,*4E
$GPRMC,180512.000,A,3622.6875,N,02814.1423,E,0.42,295.84,110809,,,A*66
$GPGGA,180513.000,3622.6874,N,02814.1423,E,1,9,0.89,20.6,M,33.1,M,,*6C
$GPGSA,A,3,21,16,31,24,30,22,10,29,18,,,,1.20,0.89,0.80*08
$GPGSV,3,1,11,21,83,303,29,29,51,067,25,24,47,045,24,39,47,185,32*77
$GPGSV,3,2,11,16,37,314,39,18,33,163,30,30,25,152,21,31,23,242,36*7A
$GPGSV,3,3,11,10,11,039,21,22,08,188,22,06,08,290,*4D
$GPRMC,180513.000,A,3622.6874,N,02814.1423,E,0.41,295.84,110809,,,A*65
$GPGGA,180514.000,3622.6872,N,02814.1422,E,1,9,0.89,20.6,M,33.1,M,,*6C
$GPGSA,A,3,21,16,31,24,30,22,10,29,18,,,,1.20,0.89,0.80*08
$GPGSV,3,1,11,21,83,303,28,29,51,067,25,24,47,045,25,39,47,185,31*74
$GPGSV,3,2,11,16,37,314,40,18,33,163,32,30,25,152,21,31,23,242,37*77
$GPGSV,3,3,11,10,11,039,21,22,08,188,22,06,08,290,*4D
$GPRMC,180514.000,A,3622.6872,N,02814.1422,E,0.29,295.84,110809,,,A*6B
$GPGGA,180515.000,3622.6871,N,02814.1424,E,1,9,0.89,20.6,M,33.1,M,,*68
$GPGSA,A,3,21,16,31,24,30,22,10,29,18,,,,1.20,0.89,0.80*08
$GPGSV,3,1,11,21,83,303,28,29,51,067,25,24,47,045,27,39,47,185,32*75
$GPGSV,3,2,11,16,37,314,40,18,33,163,32,30,25,152,20,31,23,242,37*76
$GPGSV,3,3,11,10,11,039,20,22,08,188,22,06,08,290,*4C
$GPRMC,180515.000,A,3622.6871,N,02814.1424,E,0.16,295.84,110809,,,A*63
$GPGGA,180516.000,3622.6870,N,02814.1426,E,1,9,0.89,20.2,M,33.1,M,,*6C
$GPGSA,A,3,21,16,31,24,30,22,10,29,18,,,,1.20,0.89,0.80*08
$GPGSV,3,1,11,21,83,303,28,29,51,067,25,24,47,045,25,39,47,185,32*77
$GPGSV,3,2,11,16,37,314,40,18,33,163,31,30,25,152,21,31,23,242,37*74
$GPGSV,3,3,11,10,11,039,20,22,08,188,23,06,08,290,*4D
$GPRMC,180516.000,A,3622.6870,N,02814.1426,E,0.09,295.84,110809,,,A*6D
$GPGGA,180517.000,3622.6869,N,02814.1426,E,1,9,0.89,19.4,M,33.1,M,,*69
$GPGSA,A,3,21,16,31,24,30,22,10,29,18,,,,1.20,0.89,0.80*08
$GPGSV,3,1,11,21,83,303,28,29,51,067,25,24,47,045,27,39,47,185,32*75
$GPGSV,3,2,11,16,37,314,41,18,33,163,31,30,25,152,22,31,23,242,37*76
$GPGSV,3,3,11,10,11,039,20,22,08,188,24,06,08,290,*4A
$GPRMC,180517.000,A,3622.6869,N,02814.1426,E,0.09,295.84,110809,,,A*64
$GPGGA,180518.000,3622.6873,N,02814.1422,E,1,9,0.89,18.5,M,33.1,M,,*69
$GPGSA,A,3,21,16,31,24,30,22,10,29,18,,,,1.20,0.89,0.80*08
$GPGSV,3,1,11,21,83,303,29,29,51,067,24,24,47,045,27,39,47,185,32*75
$GPGSV,3,2,11,16,37,314,41,18,33,163,32,30,25,152,23,31,23,242,37*74
$GPGSV,3,3,11,10,11,039,20,22,08,188,24,06,08,290,*4A
$GPRMC,180518.000,A,3622.6873,N,02814.1422,E,0.05,295.84,110809,,,A*68
$GPGGA,180519.000,3622.6873,N,02814.1426,E,1,9,0.89,18.3,M,33.1,M,,*6A
$GPGSA,A,3,21,16,31,24,30,22,10,29,18,,,,1.20,0.89,0.80*08
$GPGSV,3,1,11,21,83,303,29,29,51,067,22,24,47,045,28,16,37,314,41*78
$GPGSV,3,2,11,18,33,163,32,44,32,127,,30,25,152,16,31,23,242,37*77
$GPGSV,3,3,11,10,11,039,20,22,08,188,24,06,08,290,*4A
$GPRMC,180519.000,A,3622.6873,N,02814.1426,E,0.02,295.84,110809,,,A*6A
$GPGGA,180520.000,3622.6873,N,02814.1430,E,1,9,0.89,17.9,M,33.1,M,,*62
$GPGSA,A,3,21,16,31,24,30,22,10,29,18,,,,1.20,0.89,0.80*08
$GPGSV,3,1,11,21,83,303,29,29,51,067,20,24,47,045,29,16,37,314,41*7B
$GPGSV,3,2,11,18,33,163,32,44,32,127,,30,25,152,18,31,23,242,36*78
$GPGSV,3,3,11,10,11,039,20,22,08,188,24,06,08,290,*4A
$GPRMC,180520.000,A,3622.6873,N,02814.1430,E,0.08,295.84,110809,,,A*6D
$GPGGA,180521.000,3622.6874,N,02814.1431,E,1,9,0.89,16.7,M,33.1,M,,*6A
$GPGSA,A,3,21,16,31,24,30,22,10,29,18,,,,1.20,0.89,0.80*08
$GPGSV,3,1,11,21,83,303,29,29,51,067,20,24,47,045,30,16,37,314,41*73
$GPGSV,3,2,11,18,33,163,32,44,32,127,,30,25,152,18,31,23,242,36*78
$GPGSV,3,3,11,10,11,039,21,22,08,188,24,06,08,290,*4B
$GPRMC,180521.000,A,3622.6874,N,02814.1431,E,0.06,295.84,110809,,,A*64
$GPGGA,180522.000,3622.6874,N,02814.1439,E,1,9,0.89,16.4,M,33.1,M,,*62
$GPGSA,A,3,21,16,31,24,30,22,10,29,18,,,,1.20,0.89,0.80*08
$GPGSV,3,1,11,21,83,303,29,29,51,067,21,24,47,045,30,16,37,314,41*72
$GPGSV,3,2,11,18,33,163,32,44,32,127,,30,25,152,18,31,23,242,35*7B
$GPGSV,3,3,11,10,11,039,22,22,08,188,23,06,08,290,*4F
$GPRMC,180522.000,A,3622.6874,N,02814.1439,E,0.04,295.84,110809,,,A*6D
$GPGGA,180523.000,3622.6874,N,02814.1438,E,1,9,0.89,15.6,M,33.1,M,,*63
$GPGSA,A,3,21,16,31,24,30,22,10,29,18,,,,1.20,0.89,0.80*08
$GPGSV,3,1,11,21,83,303,29,29,51,067,22,24,47,045,29,16,37,314,41*79
$GPGSV,3,2,11,18,33,163,32,44,32,127,,30,25,152,18,31,23,242,35*7B
$GPGSV,3,3,11,10,11,039,22,22,08,188,23,06,08,290,*4F
$GPRMC,180523.000,A,3622.6874,N,02814.1438,E,0.22,295.84,110809,,,A*69
$GPGGA,180524.000,3622.6875,N,02814.1442,E,1,8,0.92,16.5,M,33.1,M,,*63
$GPGSA,A,3,21,16,31,30,22,10,29,18,,,,,1.22,0.92,0.81*07
$GPGSV,3,1,11,21,83,303,29,29,51,067,21,24,47,045,17,16,37,314,40*76
$GPGSV,3,2,11,18,33,163,31,44,32,127,,30,25,152,18,31,23,242,35*78
$GPGSV,3,3,11,10,11,039,23,22,08,188,23,06,08,290,*4E
$GPRMC,180524.000,A,3622.6875,N,02814.1442,E,0.21,295.84,110809,,,A*61
$GPGGA,180525.000,3622.6871,N,02814.1443,E,1,9,0.89,16.6,M,33.1,M,,*6F
$GPGSA,A,3,21,16,31,24,30,22,10,29,18,,,,1.20,0.89,0.80*08
$GPGSV,3,1,11,21,83,303,29,29,51,067,20,24,47,045,17,16,37,314,38*78
$GPGSV,3,2,11,18,33,163,31,44,32,127,,30,25,152,19,31,23,242,35*79
$GPGSV,3,3,11,10,11,039,24,22,08,188,23,06,08,290,*49
$GPRMC,180525.000,A,3622.6871,N,02814.1443,E,0.21,295.84,110809,,,A*65
$GPGGA,180526.000,3622.6870,N,02814.1444,E,1,9,0.89,16.9,M,33.1,M,,*65
$GPGSA,A,3,21,16,31,24,30,22,10,29,18,,,,1.20,0.89,0.80*08
$GPGSV,3,1,11,21,83,303,29,29,51,067,21,24,47,045,19,16,37,314,38*77
$GPGSV,3,2,11,18,33,163,31,44,32,127,,30,25,152,19,31,23,242,35*79
$GPGSV,3,3,11,10,11,039,24,22,08,188,22,06,08,290,*48
$GPRMC,180526.000,A,3622.6870,N,02814.1444,E,0.27,295.84,110809,,,A*66
$GPGGA,180527.000,3622.6869,N,02814.1444,E,1,9,0.89,16.9,M,33.1,M,,*6C
$GPGSA,A,3,21,16,31,24,30,22,10,29,18,,,,1.20,0.89,0.80*08
$GPGSV,3,1,11,21,83,303,29,29,51,067,21,24,47,045,21,16,37,314,39*7D
$GPGSV,3,2,11,18,33,163,31,44,32,127,,30,25,152,19,31,23,242,35*79
$GPGSV,3,3,11,10,11,039,24,22,08,188,23,06,08,290,*49
$GPRMC,180527.000,A,3622.6869,N,02814.1444,E,0.18,295.84,110809,,,A*63
$GPGGA,180528.000,3622.6869,N,02814.1446,E,1,9,0.89,17.2,M,33.1,M,,*6B
$GPGSA,A,3,21,16,31,24,30,22,10,29,18,,,,1.20,0.89,0.80*08
$GPGSV,3,1,11,21,83,303,28,29,51,067,22,24,47,045,21,16,37,314,40*71
$GPGSV,3,2,11,18,33,163,31,33,27,238,,30,25,152,20,31,23,242,35*7A
$GPGSV,3,3,11,10,11,039,24,22,08,188,24,06,08,290,*4E
$GPRMC,180528.000,A,3622.6869,N,02814.1446,E,0.23,295.84,110809,,,A*66
$GPGGA,180529.000,3622.6869,N,02814.1447,E,1,9,0.89,17.6,M,33.1,M,,*6F
$GPGSA,A,3,21,16,31,24,30,22,10,29,18,,,,1.20,0.89,0.80*08
$GPGSV,3,1,11,21,83,303,27,29,51,067,22,24,47,045,22,16,37,314,40*7D
$GPGSV,3,2,11,18,33,163,30,33,27,238,,30,25,152,20,31,23,242,36*78
$GPGSV,3,3,11,10,11,039,24,22,08,188,24,06,08,290,*4E
$GPRMC,180529.000,A,3622.6869,N,02814.1447,E,0.13,295.84,110809,,,A*65
$GPGGA,180530.000,3622.6870,N,02814.1452,E,1,9,0.89,18.2,M,33.1,M,,*60
$GPGSA,A,3,21,16,31,24,30,22,10,29,18,,,,1.20,0.89,0.80*08
$GPGSV,3,1,11,21,83,303,27,29,51,067,21,24,47,045,23,16,37,314,40*7F
$GPGSV,3,2,11,18,33,163,31,33,27,238,,30,25,152,19,31,23,242,37*72
$GPGSV,3,3,11,10,11,039,22,22,08,188,24,06,08,290,*48
$GPRMC,180530.000,A,3622.6870,N,02814.1452,E,0.14,295.84,110809,,,A*66
$GPGGA,180531.000,3622.6871,N,02814.1454,E,1,9,0.89,18.6,M,33.1,M,,*62
$GPGSA,A,3,21,16,31,24,30,22,10,29,18,,,,1.20,0.89,0.80*08
$GPGSV,3,1,11,21,83,303,27,29,51,067,21,24,47,045,24,16,37,314,40*78
$GPGSV,3,2,11,18,33,163,31,33,27,238,,30,25,152,18,31,23,242,37*73
$GPGSV,3,3,11,10,11,039,22,22,08,188,24,06,08,290,*48
$GPRMC,180531.000,A,3622.6871,N,02814.1454,E,0.11,295.84,110809,,,A*65
$GPGGA,180532.000,3622.6872,N,02814.1453,E,1,9,0.89,18.7,M,33.1,M,,*64
$GPGSA,A,3,21,16,31,24,30,22,10,29,18,,,,1.20,0.89,0.80*08
$GPGSV,3,1,11,21,83,303,27,29,51,067,21,24,47,045,25,16,37,314,39*77
$GPGSV,3,2,11,18,33,163,30,33,27,238,,30,25,152,18,31,23,242,37*72
$GPGSV,3,3,11,10,11,039,22,22,08,188,25,06,08,290,*49
$GPRMC,180532.000,A,3622.6872,N,02814.1453,E,0.17,295.84,110809,,,A*64
$GPGGA,180533.000,3622.6872,N,02814.1452,E,1,9,0.89,18.7,M,33.1,M,,*64
$GPGSA,A,3,21,16,31,24,30,22,10,29,18,,,,1.20,0.89,0.80*08
$GPGSV,3,1,11,21,83,303,27,29,51,067,21,24,47,045,26,16,37,314,39*74
$GPGSV,3,2,11,18,33,163,30,33,27,238,,30,25,152,18,31,23,242,36*73
$GPGSV,3,3,11,10,11,039,21,22,08,188,25,06,08,290,*4A
$GPRMC,180533.000,A,3622.6872,N,02814.1452,E,0.26,295.84,110809,,,A*66
$GPGGA,180534.000,3622.6872,N,02814.1452,E,1,9,0.89,18.7,M,33.1,M,,*63
$GPGSA,A,3,21,16,31,24,30,22,10,29,18,,,,1.20,0.89,0.80*08
$GPGSV,3,1,11,21,83,303,26,29,51,067,21,24,47,045,27,16,37,314,39*74
$GPGSV,3,2,11,18,33,163,30,33,27,238,,30,25,152,18,31,23,242,36*73
$GPGSV,3,3,11,10,11,039,21,22,08,188,25,06,08,290,*4A
$GPRMC,180534.000,A,3622.6872,N,02814.1452,E,0.21,295.84,110809,,,A*66
$GPGGA,180535.000,3622.6872,N,02814.1451,E,1,9,0.89,18.7,M,33.1,M,,*61
$GPGSA,A,3,21,16,31,24,30,22,10,29,18,,,,1.20,0.89,0.80*08
$GPGSV,3,1,11,21,83,303,26,29,51,067,21,24,47,045,28,16,37,314,39*7B
$GPGSV,3,2,11,18,33,163,29,33,27,238,,30,25,152,18,31,23,242,36*7B
$GPGSV,3,3,11,10,11,039,20,22,08,188,24,06,08,290,*4A
$GPRMC,180535.000,A,3622.6872,N,02814.1451,E,0.34,295.84,110809,,,A*60
$GPGGA,180536.000,3622.6872,N,02814.1450,E,1,9,0.89,18.7,M,33.1,M,,*63
$GPGSA,A,3,21,16,31,24,30,22,10,29,18,,,,1.20,0.89,0.80*08
$GPGSV,3,1,11,21,83,303,26,29,51,067,21,24,47,045,28,16,37,314,39*7B
$GPGSV,3,2,11,18,33,163,29,33,27,238,,30,25,152,18,31,23,242,36*7B
$GPGSV,3,3,11,10,11,039,20,22,08,188,23,06,08,290,*4D
$GPRMC,180536.000,A,3622.6872,N,02814.1450,E,0.21,295.84,110809,,,A*66
$GPGGA,180537.000,3622.6872,N,02814.1449,E,1,8,0.93,18.7,M,33.1,M,,*60
$GPGSA,A,3,21,16,31,24,30,22,10,18,,,,,1.24,0.93,0.82*0E
$GPGSV,3,1,11,21,83,303,25,29,51,067,20,24,47,045,26,16,37,314,39*77
$GPGSV,3,2,11,18,33,163,29,33,27,238,,30,25,152,18,31,23,242,38*75
$GPGSV,3,3,11,10,11,039,20,22,08,188,23,06,08,290,*4D
$GPRMC,180537.000,A,3622.6872,N,02814.1449,E,0.18,295.84,110809,,,A*65
$GPGGA,180538.000,3622.6872,N,02814.1448,E,1,8,0.93,18.7,M,33.1,M,,*6E
$GPGSA,A,3,21,16,31,24,30,10,29,18,,,,,1.25,0.93,0.83*05
$GPGSV,3,1,11,21,83,303,25,29,51,067,20,37,49,191,,24,47,045,25*7B
$GPGSV,3,2,11,16,37,314,39,18,33,163,29,30,25,152,18,31,23,242,37*79
$GPGSV,3,3,11,10,11,039,21,22,08,188,22,06,08,290,*4D
$GPRMC,180538.000,A,3622.6872,N,02814.1448,E,0.32,295.84,110809,,,A*63
$GPGGA,180539.000,3622.6872,N,02814.1447,E,1,8,0.92,18.7,M,33.1,M,,*61
$GPGSA,A,3,21,16,31,30,22,10,29,18,,,,,1.22,0.92,0.81*07
$GPGSV,3,1,11,21,83,303,25,29,51,067,21,37,49,191,,24,47,045,23*7C
$GPGSV,3,2,11,16,37,314,40,18,33,163,30,30,25,152,18,31,23,242,38*70
$GPGSV,3,3,11,10,11,039,21,22,08,188,23,06,08,290,*4C
$GPRMC,180539.000,A,3622.6872,N,02814.1447,E,0.26,270.36,110809,,,A*6A
$GPGGA,180540.000,3622.6872,N,02814.1447,E,1,8,0.93,18.7,M,33.1,M,,*6E
$GPGSA,A,3,21,16,31,24,30,22,10,18,,,,,1.24,0.93,0.82*0E
$GPGSV,3,1,11,21,83,303,26,29,51,067,19,37,49,191,31,24,47,045,24*71
$GPGSV,3,2,11,16,37,314,40,18,34,163,30,30,25,152,17,31,23,242,39*79
$GPGSV,3,3,11,10,11,039,21,22,08,188,23,06,08,290,*4C
$GPRMC,180540.000,A,3622.6872,N,02814.1447,E,0.03,268.14,110809,,,A*6A
$GPGGA,180541.000,3622.6872,N,02814.1446,E,1,8,0.93,18.7,M,33.1,M,,*6E
$GPGSA,A,3,21,16,31,24,30,22,10,18,,,,,1.23,0.93,0.82*09
$GPGSV,3,1,11,21,83,303,27,29,51,067,18,37,49,191,32,24,47,045,25*73
$GPGSV,3,2,11,16,37,314,41,18,34,163,31,30,25,152,17,31,23,242,39*79
$GPGSV,3,3,11,10,11,039,20,22,08,188,24,06,08,290,*4A
$GPRMC,180541.000,A,3622.6872,N,02814.1446,E,0.14,266.07,110809,,,A*60
$GPGGA,180542.000,3622.6872,N,02814.1446,E,1,8,0.93,18.7,M,33.1,M,,*6D
$GPGSA,A,3,21,16,31,24,30,22,10,18,,,,,1.24,0.93,0.82*0E
$GPGSV,3,1,11,21,83,303,26,29,51,067,18,37,49,191,33,24,47,045,26*70
$GPGSV,3,2,11,16,37,314,41,18,34,163,31,30,25,152,16,31,23,242,39*78
$GPGSV,3,3,11,10,11,039,19,22,08,188,25,06,08,290,*41
$GPRMC,180542.000,A,3622.6872,N,02814.1446,E,0.23,267.76,110809,,,A*60
$GPGGA,180543.000,3622.6872,N,02814.1445,E,1,8,0.93,18.7,M,33.1,M,,*6F
$GPGSA,A,3,21,16,31,24,30,22,10,18,,,,,1.24,0.93,0.82*0E
$GPGSV,3,1,11,21,83,305,26,29,51,067,16,37,49,191,30,24,47,045,27*7A
$GPGSV,3,2,11,16,37,314,41,18,34,163,32,30,25,152,15,31,23,242,39*78
$GPGSV,3,3,11,10,11,039,19,22,08,188,25,06,08,290,*41
$GPRMC,180543.000,A,3622.6872,N,02814.1445,E,0.04,267.76,110809,,,A*67
$GPGGA,180544.000,3622.6872,N,02814.1445,E,1,9,0.89,18.7,M,33.1,M,,*62
$GPGSA,A,3,21,16,31,24,30,22,10,29,18,,,,1.20,0.89,0.80*08
$GPGSV,3,1,11,21,83,305,27,29,51,067,23,37,49,191,29,24,47,045,27*75
$GPGSV,3,2,11,16,37,314,40,18,34,163,32,30,25,152,15,31,23,242,39*79
$GPGSV,3,3,11,10,11,039,18,22,09,187,24,06,08,290,*4F
$GPRMC,180544.000,A,3622.6872,N,02814.1445,E,0.06,267.76,110809,,,A*62
$GPGGA,180545.000,3622.6872,N,02814.1445,E,1,8,0.93,18.7,M,33.1,M,,*69
$GPGSA,A,3,21,16,31,24,30,10,29,18,,,,,1.25,0.93,0.83*05
$GPGSV,3,1,11,21,83,305,27,29,51,067,23,37,49,191,28,24,47,045,28*7B
$GPGSV,3,2,11,16,37,314,41,18,34,163,32,30,25,152,16,31,23,242,27*74
$GPGSV,3,3,11,10,11,039,18,22,09,187,22,06,08,290,*49
$GPRMC,180545.000,A,3622.6872,N,02814.1445,E,0.01,267.76,110809,,,A*64
$GPGGA,180546.000,3622.6872,N,02814.1445,E,1,8,0.93,18.7,M,33.1,M,,*6A
$GPGSA,A,3,21,16,31,24,30,10,29,18,,,,,1.25,0.93,0.83*05
$GPGSV,3,1,11,21,83,305,29,29,51,067,24,37,49,191,28,24,47,045,30*7B
$GPGSV,3,2,11,16,37,314,42,18,34,163,30,30,25,152,17,31,23,242,35*77
$GPGSV,3,3,11,10,11,039,18,22,09,187,20,06,08,290,*4B
$GPRMC,180546.000,A,3622.6872,N,02814.1445,E,0.11,267.76,110809,,,A*66
$GPGGA,180547.000,3622.6872,N,02814.1445,E,1,8,0.93,18.7,M,33.1,M,,*6B
$GPGSA,A,3,21,16,31,24,30,10,29,18,,,,,1.25,0.93,0.83*05
$GPGSV,3,1,11,21,83,305,29,29,51,067,23,37,49,191,28,24,47,045,30*7C
$GPGSV,3,2,11,16,37,314,42,18,34,163,28,30,25,152,18,31,23,242,35*71
$GPGSV,3,3,11,10,11,039,18,22,09,187,19,06,08,290,*41
$GPRMC,180547.000,A,3622.6872,N,02814.1445,E,0.12,267.76,110809,,,A*64
$GPGGA,180548.000,3622.6872,N,02814.1444,E,1,8,0.93,18.7,M,33.1,M,,*65
$GPGSA,A,3,21,16,31,24,30,10,29,18,,,,,1.25,0.93,0.83*05
$GPGSV,3,1,11,21,83,305,29,29,51,067,22,37,49,191,28,24,47,045,31*7C
$GPGSV,3,2,11,16,37,314,43,18,34,163,28,30,25,152,18,31,23,242,34*71
$GPGSV,3,3,11,10,11,039,18,22,09,187,18,06,08,290,*40
$GPRMC,180548.000,A,3622.6872,N,02814.1444,E,0.15,267.76,110809,,,A*6D
$GPGGA,180549.000,3622.6872,N,02814.1444,E,1,8,0.93,18.7,M,33.1,M,,*64
$GPGSA,A,3,21,16,31,24,30,10,29,18,,,,,1.25,0.93,0.83*05
$GPGSV,3,1,11,21,83,305,30,29,51,067,33,37,49,191,28,24,47,045,33*76
$GPGSV,3,2,11,16,37,314,42,18,34,163,20,30,25,152,17,31,23,242,33*70
$GPGSV,3,3,11,10,11,039,19,22,09,187,17,06,08,290,*4E
$GPRMC,180549.000,A,3622.6872,N,02814.1444,E,0.08,267.76,110809,,,A*60
$GPGGA,180550.000,3622.6873,N,02814.1444,E,1,8,0.93,18.7,M,33.1,M,,*6D
$GPGSA,A,3,21,16,31,24,30,10,29,18,,,,,1.25,0.93,0.83*05
$GPGSV,3,1,11,21,83,305,30,29,51,067,32,37,49,191,28,24,47,045,34*70
$GPGSV,3,2,11,16,37,314,42,18,34,163,20,30,25,152,17,31,23,242,32*71
$GPGSV,3,3,11,10,11,039,20,22,09,187,16,06,08,290,*45
$GPRMC,180550.000,A,3622.6873,N,02814.1444,E,0.02,267.76,110809,,,A*63
$GPGGA,180551.000,3622.6873,N,02814.1444,E,1,8,0.93,18.7,M,33.1,M,,*6C
$GPGSA,A,3,21,16,31,24,30,10,29,18,,,,,1.25,0.93,0.83*05
$GPGSV,3,1,11,21,83,305,30,29,51,068,31,37,49,191,28,24,47,045,34*7C
$GPGSV,3,2,11,16,37,314,42,18,34,163,20,30,25,152,18,31,23,242,32*7E
$GPGSV,3,3,11,10,11,039,19,22,09,187,16,06,08,290,*4F
$GPRMC,180551.000,A,3622.6873,N,02814.1444,E,0.12,267.76,110809,,,A*63
$GPGGA,180552.000,3622.6872,N,02814.1444,E,1,8,0.93,18.7,M,33.1,M,,*6E
$GPGSA,A,3,21,16,31,24,30,10,29,18,,,,,1.25,0.93,0.83*05
$GPGSV,3,1,11,21,83,305,30,29,51,068,31,37,49,191,28,24,47,045,35*7D
$GPGSV,3,2,11,16,37,314,41,18,34,163,21,30,25,152,20,31,23,242,32*77
$GPGSV,3,3,11,10,11,039,17,22,09,187,16,06,08,290,*41
$GPRMC,180552.000,A,3622.6872,N,02814.1444,E,0.20,267.76,110809,,,A*60
$GPGGA,180553.000,3622.6872,N,02814.1443,E,1,8,0.93,18.7,M,33.1,M,,*68
$GPGSA,A,3,21,16,31,24,30,10,29,18,,,,,1.25,0.93,0.83*05
$GPGSV,3,1,11,21,83,305,28,29,51,068,30,24,47,045,34,16,37,314,41*7E
$GPGSV,3,2,11,18,34,163,22,44,32,127,,30,25,152,20,31,23,242,31*72
$GPGSV,3,3,11,10,11,039,17,22,09,187,17,06,08,290,*40
$GPRMC,180553.000,A,3622.6872,N,02814.1443,E,0.26,267.76,110809,,,A*60
$GPGGA,180554.000,3622.6872,N,02814.1442,E,1,8,0.93,18.7,M,33.1,M,,*6E
$GPGSA,A,3,21,16,31,24,30,10,29,18,,,,,1.25,0.93,0.83*05
$GPGSV,3,1,11,21,83,305,29,29,51,068,17,24,47,045,33,16,37,314,40*7C
$GPGSV,3,2,11,18,34,163,29,33,27,238,,30,25,152,20,31,23,242,30*71
$GPGSV,3,3,11,10,11,039,17,22,09,187,18,06,08,290,*4F
$GPRMC,180554.000,A,3622.6872,N,02814.1442,E,0.22,267.76,110809,,,A*62
$GPGGA,180555.000,3622.6872,N,02814.1441,E,1,9,0.89,18.7,M,33.1,M,,*66
$GPGSA,A,3,21,16,31,24,30,22,10,29,18,,,,1.20,0.89,0.80*08
$GPGSV,3,1,11,21,83,305,30,29,51,068,24,24,47,045,33,16,37,314,39*7A
$GPGSV,3,2,11,18,34,163,28,33,27,238,,30,25,152,22,31,23,242,31*73
$GPGSV,3,3,11,10,11,039,17,22,09,187,18,06,08,290,*4F
$GPRMC,180555.000,A,3622.6872,N,02814.1441,E,0.14,267.76,110809,,,A*65
$GPGGA,180556.000,3622.6872,N,02814.1441,E,1,8,0.93,18.7,M,33.1,M,,*6F
$GPGSA,A,3,21,16,31,24,30,10,29,18,,,,,1.25,0.93,0.83*05
$GPGSV,3,1,11,21,83,305,31,29,51,068,24,24,47,045,33,16,37,314,40*75
$GPGSV,3,2,11,18,34,163,28,33,27,238,,30,25,152,23,31,23,242,31*72
$GPGSV,3,3,11,10,11,039,17,22,09,187,18,06,08,290,*4F
$GPRMC,180556.000,A,3622.6872,N,02814.1441,E,0.23,267.76,110809,,,A*62
$GPGGA,180557.000,3622.6871,N,02814.1441,E,1,8,0.93,18.7,M,33.1,M,,*6D
$GPGSA,A,3,21,16,31,24,30,10,29,18,,,,,1.25,0.93,0.83*05
$GPGSV,3,1,11,21,83,305,31,29,51,068,24,24,47,045,33,16,37,314,41*74
$GPGSV,3,2,11,18,34,163,28,33,27,238,,30,25,152,22,31,23,242,30*72
$GPGSV,3,3,11,10,11,039,17,22,09,187,20,06,08,290,*44
$GPRMC,180557.000,A,3622.6871,N,02814.1441,E,0.28,267.76,110809,,,A*6B
$GPGGA,180558.000,3622.6871,N,02814.1440,E,1,9,0.89,18.7,M,33.1,M,,*69
$GPGSA,A,3,21,16,31,24,30,22,10,29,18,,,,1.20,0.89,0.80*08
$GPGSV,3,1,11,21,83,305,30,29,51,068,24,24,47,045,33,16,37,314,41*75
$GPGSV,3,2,11,18,34,163,28,33,27,238,,30,25,152,21,31,23,242,30*71
$GPGSV,3,3,11,10,11,039,17,22,09,187,22,06,08,290,*46
$GPRMC,180558.000,A,3622.6871,N,02814.1440,E,0.21,230.95,110809,,,A*63
$GPGGA,180559.000,3622.6870,N,02814.1440,E,1,9,0.89,18.7,M,33.1,M,,*69
$GPGSA,A,3,21,16,31,24,30,22,10,29,18,,,,1.20,0.89,0.80*08
$GPGSV,3,1,11,21,83,305,30,29,51,068,23,24,47,045,33,16,37,314,41*72
$GPGSV,3,2,11,18,34,163,28,33,27,238,,30,25,152,22,31,23,242,31*73
$GPGSV,3,3,11,10,11,039,17,22,09,187,23,06,08,290,*47
$GPRMC,180559.000,A,3622.6870,N,02814.1440,E,0.28,234.68,110809,,,A*6C
$GPGGA,180600.000,3622.6870,N,02814.1439,E,1,9,0.89,18.7,M,33.1,M,,*68
$GPGSA,A,3,21,16,31,24,30,22,10,29,18,,,,1.20,0.89,0.80*08
$GPGSV,3,1,11,21,83,305,30,29,51,068,23,24,47,045,33,16,37,314,40*73
$GPGSV,3,2,11,18,34,163,28,33,27,238,,30,25,152,21,31,23,242,33*72
$GPGSV,3,3,11,10,11,039,18,22,09,187,24,06,09,291,*4F
$GPRMC,180600.000,A,3622.6870,N,02814.1439,E,0.16,237.57,110809,,,A*6F
$GPGGA,180601.000,3622.6870,N,02814.1438,E,1,9,0.89,18.7,M,33.1,M,,*68
$GPGSA,A,3,21,16,31,24,30,22,10,29,18,,,,1.20,0.89,0.80*08
$GPGSV,3,1,11,21,83,305,30,29,51,068,22,24,47,045,33,16,37,314,40*72
$GPGSV,3,2,11,18,34,163,28,33,27,238,,30,25,152,21,31,23,242,34*75
$GPGSV,3,3,11,10,11,039,19,22,09,187,25,06,09,291,*4F
$GPRMC,180601.000,A,3622.6870,N,02814.1438,E,0.10,237.57,110809,,,A*69
$GPGGA,180602.000,3622.6870,N,02814.1438,E,1,9,0.89,18.7,M,33.1,M,,*6B
$GPGSA,A,3,21,16,31,24,30,22,10,29,18,,,,1.20,0.89,0.80*08
$GPGSV,3,1,11,21,83,305,29,29,51,068,23,24,47,045,33,16,37,314,39*75
$GPGSV,3,2,11,18,34,163,29,33,27,238,,30,25,152,21,31,23,242,35*75
$GPGSV,3,3,11,10,11,039,18,22,09,187,25,06,09,291,*4E
$GPRMC,180602.000,A,3622.6870,N,02814.1438,E,0.08,237.57,110809,,,A*63
$GPGGA,180603.000,3622.6869,N,02814.1438,E,1,9,0.89,18.7,M,33.1,M,,*62
$GPGSA,A,3,21,16,31,24,30,22,10,29,18,,,,1.20,0.89,0.80*08
$GPGSV,3,1,11,21,83,305,28,29,51,068,23,24,47,045,33,16,37,314,38*75
$GPGSV,3,2,11,18,34,163,29,33,27,238,,30,25,152,20,31,23,242,36*77
$GPGSV,3,3,11,10,11,039,18,22,09,187,25,06,09,291,*4E
$GPRMC,180603.000,A,3622.6869,N,02814.1438,E,0.14,237.57,110809,,,A*67
$GPGGA,180604.000,3622.6869,N,02814.1437,E,1,9,0.89,18.7,M,33.1,M,,*6A
$GPGSA,A,3,21,16,31,24,30,22,10,29,18,,,,1.20,0.89,0.80*08
$GPGSV,3,1,11,21,83,305,28,29,51,068,24,24,47,045,33,16,37,314,37*7D
$GPGSV,3,2,11,18,34,163,27,30,25,152,19,31,23,242,36,10,11,039,17*72
$GPGSV,3,3,11,22,09,187,25,06,09,291,,34,,,*7B
$GPRMC,180604.000,A,3622.6869,N,02814.1437,E,0.11,237.57,110809,,,A*6A
$GPGGA,180605.000,3622.6869,N,02814.1437,E,1,9,0.89,18.7,M,33.1,M,,*6B
$GPGSA,A,3,21,16,31,24,30,22,10,29,18,,,,1.20,0.89,0.80*08
$GPGSV,3,1,11,21,83,305,29,29,51,068,25,24,47,045,32,16,37,314,37*7C
$GPGSV,3,2,11,18,34,163,26,30,25,152,19,31,23,242,36,10,11,039,16*72
$GPGSV,3,3,11,22,09,187,25,06,09,291,,34,,,*7B
$GPRMC,180605.000,A,3622.6869,N,02814.1437,E,0.05,237.57,110809,,,A*6E
$GPGGA,180606.000,3622.6869,N,02814.1437,E,1,9,0.89,18.7,M,33.1,M,,*68
$GPGSA,A,3,21,16,31,24,30,22,10,29,18,,,,1.20,0.89,0.80*08
$GPGSV,3,1,11,21,83,305,29,29,51,068,26,24,47,045,32,16,37,314,37*7F
$GPGSV,3,2,11,18,34,163,24,30,25,152,19,31,23,242,37,10,11,039,15*72
$GPGSV,3,3,11,22,09,187,24,06,09,291,,34,,,*7A
$GPRMC,180606.000,A,3622.6869,N,02814.1437,E,0.19,237.57,110809,,,A*60
$GPGGA,180607.000,3622.6869,N,02814.1436,E,1,8,1.01,18.7,M,33.1,M,,*68
$GPGSA,A,3,21,16,31,24,30,22,29,18,,,,,1.36,1.01,0.91*0F
$GPGSV,3,1,11,21,83,305,29,29,51,068,26,24,47,045,32,16,37,314,37*7F
$GPGSV,3,2,11,18,34,163,24,30,25,152,19,31,23,242,36,10,11,039,*77
$GPGSV,3,3,11,22,09,187,23,06,09,291,,34,,,*7D
$GPRMC,180607.000,A,3622.6869,N,02814.1436,E,0.12,237.57,110809,,,A*6B
$GPGGA,180608.000,3622.6869,N,02814.1436,E,1,8,1.01,18.7,M,33.1,M,,*67
$GPGSA,A,3,21,16,31,24,30,22,29,18,,,,,1.36,1.01,0.91*0F
$GPGSV,3,1,11,21,83,305,29,29,51,068,26,24,47,045,32,16,37,314,36*7E
$GPGSV,3,2,11,18,34,163,22,30,25,152,20,31,23,242,34,10,11,039,*79
$GPGSV,3,3,11,22,09,187,23,06,09,291,,34,,,*7D
$GPRMC,180608.000,A,3622.6869,N,02814.1436,E,0.06,237.57,110809,,,A*61
$GPGGA,180609.000,3622.6869,N,02814.1435,E,1,8,1.01,18.7,M,33.1,M,,*65
$GPGSA,A,3,21,16,31,24,30,22,29,18,,,,,1.36,1.01,0.91*0F
$GPGSV,3,1,11,21,83,305,29,29,51,068,25,24,47,045,31,16,37,314,37*7F
$GPGSV,3,2,11,18,34,163,22,30,25,152,21,31,23,242,34,10,11,039,*78
$GPGSV,3,3,11,22,09,187,25,06,09,291,,34,,,*7B
$GPRMC,180609.000,A,3622.6869,N,02814.1435,E,0.10,237.57,110809,,,A*64
$GPGGA,180610.000,3622.6869,N,02814.1435,E,1,8,1.01,18.7,M,33.1,M,,*6D
$GPGSA,A,3,21,16,31,24,30,22,29,18,,,,,1.36,1.01,0.91*0F
$GPGSV,3,1,11,21,83,305,29,29,51,068,26,24,47,045,30,16,37,314,37*7D
$GPGSV,3,2,11,18,34,163,24,30,25,152,21,31,23,242,34,10,11,039,*7E
$GPGSV,3,3,11,22,09,187,26,06,09,291,,34,,,*78
$GPRMC,180610.000,A,3622.6869,N,02814.1435,E,0.03,237.57,110809,,,A*6E
$GPGGA,180611.000,3622.6869,N,02814.1435,E,1,8,1.01,18.7,M,33.1,M,,*6C
$GPGSA,A,3,21,16,31,24,30,22,29,18,,,,,1.36,1.01,0.91*0F
$GPGSV,3,1,11,21,83,305,28,29,51,068,27,24,47,045,31,16,37,314,37*7C
$GPGSV,3,2,11,18,34,163,25,30,25,152,21,31,23,242,35,10,11,039,*7E
$GPGSV,3,3,11,22,09,187,27,06,09,291,,36,,,*7B
$GPRMC,180611.000,A,3622.6869,N,02814.1435,E,0.08,237.57,110809,,,A*64
$GPGGA,180612.000,3622.6869,N,02814.1435,E,1,8,1.01,18.7,M,33.1,M,,*6F
$GPGSA,A,3,21,16,31,24,30,22,29,18,,,,,1.36,1.01,0.91*0F
$GPGSV,3,1,11,21,83,305,29,29,51,068,27,24,47,045,32,16,37,314,37*7E
$GPGSV,3,2,11,18,34,163,25,30,25,152,20,31,23,242,35,10,11,039,*7F
$GPGSV,3,3,11,22,09,187,19,06,09,291,,36,,,*76
$GPRMC,180612.000,A,3622.6869,N,02814.1435,E,0.20,237.57,110809,,,A*6D
$GPGGA,180613.000,3622.6868,N,02814.1434,E,1,8,1.01,18.7,M,33.1,M,,*6E
$GPGSA,A,3,21,16,31,24,30,22,29,18,,,,,1.36,1.01,0.91*0F
$GPGSV,3,1,11,21,83,305,29,29,51,068,25,24,47,045,31,16,37,314,37*7F
$GPGSV,3,2,11,18,34,163,24,30,25,152,21,31,23,242,35,10,11,039,*7F
$GPGSV,3,3,11,22,09,187,19,06,09,291,,36,,,*76
$GPRMC,180613.000,A,3622.6868,N,02814.1434,E,0.13,237.57,110809,,,A*6C
$GPGGA,180614.000,3622.6868,N,02814.1434,E,1,9,0.89,18.7,M,33.1,M,,*69
$GPGSA,A,3,21,16,31,24,30,22,10,29,18,,,,1.20,0.89,0.80*08
$GPGSV,3,1,11,21,83,305,22,29,51,068,26,24,47,045,29,16,37,314,30*79
$GPGSV,3,2,11,18,34,163,24,30,25,152,23,31,23,242,37,10,11,039,16*78
$GPGSV,3,3,11,22,09,187,19,06,09,291,,36,,,*76
$GPRMC,180614.000,A,3622.6868,N,02814.1434,E,0.09,237.57,110809,,,A*60
$GPGGA,180615.000,3622.6868,N,02814.1434,E,1,8,1.01,18.7,M,33.1,M,,*68
$GPGSA,A,3,21,16,31,24,30,22,29,18,,,,,1.36,1.01,0.91*0F
$GPGSV,3,1,11,21,83,307,24,29,51,068,25,24,47,045,27,16,37,314,29*78
$GPGSV,3,2,11,18,34,163,23,30,25,152,21,31,23,242,37,10,11,039,*7A
$GPGSV,3,3,11,22,09,187,18,06,09,291,,36,,,*77
$GPRMC,180615.000,A,3622.6868,N,02814.1434,E,0.20,237.57,110809,,,A*6A
$GPGGA,180616.000,3622.6868,N,02814.1433,E,1,7,1.05,18.7,M,33.1,M,,*67
$GPGSA,A,3,21,16,31,24,30,29,18,,,,,,1.41,1.05,0.93*09
$GPGSV,3,1,11,21,83,307,22,29,51,068,18,24,47,045,26,16,37,314,37*7E
$GPGSV,3,2,11,18,34,163,30,30,25,152,20,31,23,242,36,10,11,039,*78
$GPGSV,3,3,11,22,09,187,17,06,09,291,,36,,,*78
$GPRMC,180616.000,A,3622.6868,N,02814.1433,E,0.19,237.57,110809,,,A*64
$GPGGA,180617.000,3622.6868,N,02814.1433,E,1,8,1.01,18.7,M,33.1,M,,*6D
$GPGSA,A,3,21,16,31,24,30,22,29,18,,,,,1.36,1.01,0.91*0F
$GPGSV,3,1,11,21,83,307,29,29,51,068,25,24,47,045,27,16,37,314,36*7B
$GPGSV,3,2,11,18,34,163,31,30,25,152,22,31,23,242,35,10,11,039,*78
$GPGSV,3,3,11,22,09,187,25,06,09,291,,36,,,*79
$GPRMC,180617.000,A,3622.6868,N,02814.1433,E,0.09,237.57,110809,,,A*64
$GPGGA,180618.000,3622.6867,N,02814.1433,E,1,9,0.89,18.7,M,33.1,M,,*6D
$GPGSA,A,3,21,16,31,24,30,22,10,29,18,,,,1.20,0.89,0.80*08
$GPGSV,3,1,11,21,83,307,30,29,51,068,27,24,47,045,26,16,37,314,38*7E
$GPGSV,3,2,11,18,34,163,33,30,25,152,31,31,23,242,35,10,11,039,17*7E
$GPGSV,3,3,11,22,09,187,26,06,09,291,,38,,,*74
$GPRMC,180618.000,A,3622.6867,N,02814.1433,E,0.06,237.57,110809,,,A*6B
$GPGGA,180619.000,3622.6867,N,02814.1433,E,1,9,0.89,18.7,M,33.1,M,,*6C
$GPGSA,A,3,21,16,31,24,30,22,10,29,18,,,,1.20,0.89,0.80*08
$GPGSV,3,1,11,21,83,307,31,29,51,068,27,24,47,045,28,16,37,314,39*70
$GPGSV,3,2,11,18,34,163,33,30,25,152,30,31,23,242,35,10,11,039,17*7F
$GPGSV,3,3,11,22,09,187,25,06,09,291,,38,,,*77
$GPRMC,180619.000,A,3622.6867,N,02814.1433,E,0.12,237.57,110809,,,A*6F
$GPGGA,180620.000,3622.6867,N,02814.1434,E,1,9,0.89,18.7,M,33.1,M,,*61
$GPGSA,A,3,21,16,31,24,30,22,10,29,18,,,,1.20,0.89,0.80*08
$GPGSV,3,1,11,21,83,307,32,29,51,068,26,24,47,045,28,16,37,314,39*72
$GPGSV,3,2,11,18,34,163,33,30,25,152,28,31,23,242,34,10,11,039,14*74
$GPGSV,3,3,11,22,09,187,24,06,09,291,,38,,,*76
$GPRMC,180620.000,A,3622.6867,N,02814.1434,E,0.25,237.57,110809,,,A*66
$GPGGA,180621.000,3622.6867,N,02814.1434,E,1,9,0.89,18.7,M,33.1,M,,*60
$GPGSA,A,3,21,16,31,24,30,22,10,29,18,,,,1.20,0.89,0.80*08
$GPGSV,3,1,11,21,83,307,31,29,51,068,26,24,47,045,27,16,37,314,39*7E
$GPGSV,3,2,11,18,34,163,33,30,25,152,27,31,23,242,34,10,11,039,14*7B
$GPGSV,3,3,11,22,09,187,23,06,09,291,,38,,,*71
$GPRMC,180621.000,A,3622.6867,N,02814.1434,E,0.05,237.57,110809,,,A*65
$GPGGA,180622.000,3622.6867,N,02814.1434,E,1,8,0.93,18.7,M,33.1,M,,*69
$GPGSA,A,3,21,16,31,24,30,10,29,18,,,,,1.25,0.93,0.83*05
$GPGSV,3,1,11,21,83,307,32,29,51,068,27,24,47,045,28,16,37,314,39*73
$GPGSV,3,2,11,18,34,163,33,30,25,152,27,31,23,242,35,10,11,039,14*7A
$GPGSV,3,3,11,22,09,187,22,06,09,291,,38,,,*70
$GPRMC,180622.000,A,3622.6867,N,02814.1434,E,0.04,237.57,110809,,,A*67
$GPGGA,180623.000,3622.6867,N,02814.1434,E,1,8,1.01,18.7,M,33.1,M,,*62
$GPGSA,A,3,21,16,31,24,30,22,29,18,,,,,1.36,1.01,0.91*0F
$GPGSV,3,1,11,21,83,307,32,29,51,068,27,24,47,045,30,16,37,314,39*7A
$GPGSV,3,2,11,18,34,163,33,30,25,152,26,31,23,242,35,10,11,039,*7E
$GPGSV,3,3,11,22,09,187,21,06,09,291,,38,,,*73
$GPRMC,180623.000,A,3622.6867,N,02814.1434,E,0.28,237.57,110809,,,A*68
$GPGGA,180624.000,3622.6866,N,02814.1434,E,1,8,1.01,18.7,M,33.1,M,,*64
$GPGSA,A,3,21,16,31,24,30,22,29,18,,,,,1.36,1.01,0.91*0F
$GPGSV,3,1,11,21,83,307,32,29,51,068,26,24,47,045,30,16,37,314,40*75
$GPGSV,3,2,11,18,34,163,33,30,24,152,27,31,23,242,35,10,11,039,*7E
$GPGSV,3,3,11,22,09,187,23,06,09,291,,38,,,*71
$GPRMC,180624.000,A,3622.6866,N,02814.1434,E,0.19,237.57,110809,,,A*6C
$GPGGA,180625.000,3622.6866,N,02814.1434,E,1,8,1.00,18.7,M,33.1,M,,*64
$GPGSA,A,3,21,16,31,24,30,22,29,18,,,,,1.36,1.00,0.91*0E
$GPGSV,3,1,11,21,83,307,32,29,51,068,26,24,47,045,31,16,37,314,40*74
$GPGSV,3,2,11,18,34,163,33,30,24,152,27,31,23,241,35,10,11,039,*7D
$GPGSV,3,3,11,22,09,187,24,06,09,291,,40,,,*79
$GPRMC,180625.000,A,3622.6866,N,02814.1434,E,0.08,237.57,110809,,,A*6D
$GPGGA,180626.000,3622.6866,N,02814.1434,E,1,8,1.01,18.7,M,33.1,M,,*66
$GPGSA,A,3,21,16,31,24,30,22,29,18,,,,,1.36,1.01,0.91*0F
$GPGSV,3,1,11,21,83,307,32,29,51,068,26,24,47,045,31,16,37,314,40*74
$GPGSV,3,2,11,18,34,163,33,30,24,152,27,31,23,241,35,10,11,039,*7D
$GPGSV,3,3,11,22,09,187,25,06,09,291,,40,,,*78
$GPRMC,180626.000,A,3622.6866,N,02814.1434,E,0.06,237.57,110809,,,A*60
$GPGGA,180627.000,3622.6866,N,02814.1433,E,1,8,1.01,18.7,M,33.1,M,,*60
$GPGSA,A,3,21,16,31,24,30,22,29,18,,,,,1.36,1.01,0.91*0F
$GPGSV,3,1,11,21,83,307,31,29,51,068,26,24,47,045,31,16,37,314,40*77
$GPGSV,3,2,11,18,34,163,33,30,24,152,27,31,23,241,35,10,11,039,*7D
$GPGSV,3,3,11,22,09,187,26,06,09,291,,40,,,*7B
$GPRMC,180627.000,A,3622.6866,N,02814.1433,E,0.07,237.57,110809,,,A*67
$GPGGA,180628.000,3622.6866,N,02814.1434,E,1,8,1.01,18.7,M,33.1,M,,*68
$GPGSA,A,3,21,16,31,24,30,22,29,18,,,,,1.36,1.01,0.91*0F
$GPGSV,3,1,11,21,83,307,31,29,51,068,26,24,47,045,31,16,37,314,39*79
$GPGSV,3,2,11,18,34,163,33,30,24,152,26,31,23,241,35,10,11,039,*7C
$GPGSV,3,3,11,22,09,187,25,06,09,291,,40,,,*78
$GPRMC,180628.000,A,3622.6866,N,02814.1434,E,0.08,237.57,110809,,,A*60
$GPGGA,180629.000,3622.6866,N,02814.1433,E,1,7,1.05,18.7,M,33.1,M,,*65
$GPGSA,A,3,21,16,31,24,30,29,18,,,,,,1.41,1.05,0.93*09
$GPGSV,3,1,11,21,83,307,32,29,51,068,27,24,47,045,32,16,37,314,39*78
$GPGSV,3,2,11,18,34,163,33,30,24,152,27,31,23,241,35,10,11,039,*7D
$GPGSV,3,3,11,22,09,187,17,06,09,291,,40,,,*79
$GPRMC,180629.000,A,3622.6866,N,02814.1433,E,0.19,237.57,110809,,,A*66
$GPGGA,180630.000,3622.6866,N,02814.1433,E,1,8,1.01,18.7,M,33.1,M,,*66
$GPGSA,A,3,21,16,31,24,30,22,29,18,,,,,1.36,1.01,0.91*0F
$GPGSV,3,1,11,21,83,307,32,29,51,068,28,24,47,045,32,16,37,314,38*76
$GPGSV,3,2,11,18,34,163,32,30,24,152,28,31,23,241,34,10,11,039,*72
$GPGSV,3,3,11,22,09,187,19,06,09,291,,40,,,*77
$GPRMC,180630.000,A,3622.6866,N,02814.1433,E,0.23,237.57,110809,,,A*67
$GPGGA,180631.000,3622.6865,N,02814.1432,E,1,8,1.00,18.7,M,33.1,M,,*64
$GPGSA,A,3,21,16,31,24,30,22,29,18,,,,,1.36,1.00,0.91*0E
$GPGSV,3,1,11,21,83,307,32,29,51,068,26,24,47,045,31,16,37,314,38*7B
$GPGSV,3,2,11,18,34,163,32,30,24,152,28,31,23,241,34,10,11,039,*72
$GPGSV,3,3,11,22,09,187,27,06,09,291,,41,,,*7B
$GPRMC,180631.000,A,3622.6865,N,02814.1432,E,0.16,237.57,110809,,,A*62
$GPGGA,180632.000,3622.6865,N,02814.1431,E,1,8,1.00,18.7,M,33.1,M,,*64
$GPGSA,A,3,21,16,31,24,30,22,29,18,,,,,1.36,1.00,0.91*0E
$GPGSV,3,1,11,21,83,307,33,29,51,068,26,24,47,045,32,16,37,314,37*76
$GPGSV,3,2,11,18,34,163,31,30,24,152,28,31,23,241,35,10,11,039,*70
$GPGSV,3,3,11,22,09,187,28,06,09,291,,41,,,*74
$GPRMC,180632.000,A,3622.6865,N,02814.1431,E,0.30,237.57,110809,,,A*66
$GPGGA,180633.000,3622.6864,N,02814.1431,E,1,8,1.01,18.7,M,33.1,M,,*65
$GPGSA,A,3,21,16,31,24,30,22,29,18,,,,,1.36,1.01,0.91*0F
$GPGSV,3,1,11,21,83,307,33,29,51,068,26,24,47,045,32,16,37,314,21*71
$GPGSV,3,2,11,18,34,163,30,30,24,152,28,31,23,241,36,10,11,039,*72
$GPGSV,3,3,11,22,09,187,29,06,09,291,,41,,,*75
$GPRMC,180633.000,A,3622.6864,N,02814.1431,E,0.22,242.63,110809,,,A*60
$GPGGA,180634.000,3622.6864,N,02814.1430,E,1,8,1.01,18.7,M,33.1,M,,*63
$GPGSA,A,3,21,16,31,24,30,22,29,18,,,,,1.36,1.01,0.91*0F
$GPGSV,3,1,11,21,83,307,34,29,51,068,26,24,47,045,33,16,37,314,21*77
$GPGSV,3,2,11,18,34,163,30,30,24,152,28,31,23,241,36,10,11,039,*72
$GPGSV,3,3,11,22,09,187,29,06,09,291,,41,,,*75
$GPRMC,180634.000,A,3622.6864,N,02814.1430,E,0.09,242.63,110809,,,A*6F
$GPGGA,180635.000,3622.6864,N,02814.1430,E,1,8,1.01,18.7,M,33.1,M,,*62
$GPGSA,A,3,21,16,31,24,30,22,29,18,,,,,1.36,1.01,0.91*0F
$GPGSV,3,1,11,21,83,307,34,29,51,068,26,24,47,045,33,16,37,314,20*76
$GPGSV,3,2,11,18,34,163,29,30,24,152,28,31,23,241,37,10,11,039,*7B
$GPGSV,3,3,11,22,09,187,29,06,09,291,,41,,,*75
$GPRMC,180635.000,A,3622.6864,N,02814.1430,E,0.20,242.63,110809,,,A*65
$GPGGA,180636.000,3622.6864,N,02814.1430,E,1,8,1.00,18.7,M,33.1,M,,*60
$GPGSA,A,3,21,16,31,24,30,22,29,18,,,,,1.36,1.00,0.91*0E
$GPGSV,3,1,11,21,83,307,35,29,51,068,27,24,47,045,32,16,37,314,19*7D
$GPGSV,3,2,11,18,34,163,28,30,24,152,29,31,23,241,37,10,10,039,*7A
$GPGSV,3,3,11,22,09,187,28,06,09,291,,41,,,*74
$GPRMC,180636.000,A,3622.6864,N,02814.1430,E,0.23,242.63,110809,,,A*65
$GPGGA,180637.000,3622.6864,N,02814.1431,E,1,8,1.01,18.7,M,33.1,M,,*61
$GPGSA,A,3,21,16,31,24,30,22,29,18,,,,,1.36,1.01,0.91*0F
$GPGSV,3,1,11,21,83,307,35,29,51,068,28,24,47,045,32,16,37,314,20*78
$GPGSV,3,2,11,18,34,163,27,30,24,152,29,31,23,241,37,10,10,039,*75
$GPGSV,3,3,11,22,09,187,28,06,09,291,,43,,,*76
$GPRMC,180637.000,A,3622.6864,N,02814.1431,E,0.04,242.63,110809,,,A*60
$GPGGA,180638.000,3622.6864,N,02814.1431,E,1,8,1.00,18.6,M,33.1,M,,*6E
$GPGSA,A,3,21,16,31,24,30,22,29,18,,,,,1.36,1.00,0.91*0E
$GPGSV,3,1,11,21,83,307,35,29,51,068,28,24,47,045,32,16,37,314,19*72
$GPGSV,3,2,11,18,34,163,28,30,24,152,28,31,23,241,37,10,10,039,*7B
$GPGSV,3,3,11,22,09,187,29,06,09,291,,43,,,*77
$GPRMC,180638.000,A,3622.6864,N,02814.1431,E,0.17,242.63,110809,,,A*6D
$GPGGA,180639.000,3622.6865,N,02814.1431,E,1,8,1.01,18.6,M,33.1,M,,*6F
$GPGSA,A,3,21,16,31,24,30,22,29,18,,,,,1.36,1.01,0.91*0F
$GPGSV,3,1,11,21,83,307,35,29,51,068,27,24,47,045,32,16,37,314,21*76
$GPGSV,3,2,11,18,34,163,30,30,24,152,29,31,23,241,36,10,10,039,*72
$GPGSV,3,3,11,22,09,187,29,06,09,291,,43,,,*77
$GPRMC,180639.000,A,3622.6865,N,02814.1431,E,0.17,242.63,110809,,,A*6D
$GPGGA,180640.000,3622.6865,N,02814.1431,E,1,8,1.22,18.6,M,33.1,M,,*60
$GPGSA,A,3,21,16,31,24,30,22,29,18,,,,,2.57,1.22,2.26*04
$GPGSV,3,1,11,21,83,307,35,29,51,068,27,24,47,045,32,16,37,314,23*74
$GPGSV,3,2,11,18,34,163,30,30,24,152,29,31,23,241,36,10,10,039,*72
$GPGSV,3,3,11,22,09,187,27,06,09,291,,43,,,*79
$GPRMC,180640.000,A,3622.6865,N,02814.1431,E,0.24,242.63,110809,,,A*63
$GPGGA,180641.000,3622.6866,N,02814.1431,E,1,8,1.22,18.6,M,33.1,M,,*62
$GPGSA,A,3,21,16,31,24,30,22,29,18,,,,,2.57,1.22,2.26*04
$GPGSV,3,1,11,21,83,307,35,29,51,068,27,24,47,045,33,16,37,314,23*75
$GPGSV,3,2,11,18,34,163,30,30,24,152,29,31,23,241,37,10,10,039,*73
$GPGSV,3,3,11,22,09,187,27,06,09,291,,43,,,*79
$GPRMC,180641.000,A,3622.6866,N,02814.1431,E,0.26,242.63,110809,,,A*63
$GPGGA,180642.000,3622.6866,N,02814.1431,E,1,8,1.22,18.6,M,33.1,M,,*61
$GPGSA,A,3,21,16,31,24,30,22,29,18,,,,,2.57,1.22,2.26*04
$GPGSV,3,1,11,21,83,307,35,29,51,068,28,24,47,045,34,16,37,314,21*7F
$GPGSV,3,2,11,18,34,163,31,30,24,152,30,31,23,241,37,10,10,039,*7A
$GPGSV,3,3,11,22,09,187,27,06,09,291,,43,,,*79
$GPRMC,180642.000,A,3622.6866,N,02814.1431,E,0.32,12.10,110809,,,A*56
$GPGGA,180643.000,3622.6867,N,02814.1431,E,1,8,1.22,18.5,M,33.1,M,,*62
$GPGSA,A,3,21,16,31,24,30,22,29,18,,,,,2.57,1.22,2.27*05
$GPGSV,3,1,11,21,83,307,35,29,51,068,29,24,47,045,34,16,37,314,20*7F
$GPGSV,3,2,11,18,34,163,31,30,24,152,29,31,23,241,37,10,10,039,*72
$GPGSV,3,3,11,22,09,187,26,06,09,291,,43,,,*78
$GPRMC,180643.000,A,3622.6867,N,02814.1431,E,0.38,19.42,110809,,,A*50
$GPGGA,180644.000,3622.6868,N,02814.1432,E,1,8,1.00,18.5,M,33.1,M,,*69
$GPGSA,A,3,21,16,31,24,30,22,29,18,,,,,1.36,1.00,0.91*0E
$GPGSV,3,1,11,21,83,307,35,29,51,068,29,24,47,045,34,16,37,314,20*7F
$GPGSV,3,2,11,18,34,162,31,30,24,152,29,31,23,241,37,10,10,039,*73
$GPGSV,3,3,11,22,09,187,27,06,09,291,,45,,,*7F
$GPRMC,180644.000,A,3622.6868,N,02814.1432,E,0.35,22.68,110809,,,A*56
$GPGGA,180645.000,3622.6869,N,02814.1432,E,1,8,1.00,18.5,M,33.1,M,,*69
$GPGSA,A,3,21,16,31,24,30,22,29,18,,,,,1.36,1.00,0.91*0E
$GPGSV,3,1,11,21,83,307,35,29,51,068,29,24,47,045,35,16,37,314,21*7F
$GPGSV,3,2,11,18,34,162,32,30,24,152,29,31,23,241,37,10,10,039,*70
$GPGSV,3,3,11,22,09,187,27,06,09,291,,45,,,*7F
$GPRMC,180645.000,A,3622.6869,N,02814.1432,E,0.26,19.51,110809,,,A*56
$GPGGA,180646.000,3622.6870,N,02814.1432,E,1,8,1.22,18.5,M,33.1,M,,*62
$GPGSA,A,3,21,16,31,24,30,22,29,18,,,,,2.57,1.22,2.26*04
$GPGSV,3,1,11,21,83,307,34,29,51,068,29,24,47,045,35,16,37,314,21*7E
$GPGSV,3,2,11,18,34,162,32,30,24,152,29,31,23,241,37,10,10,039,*70
$GPGSV,3,3,11,22,09,187,27,06,09,291,,45,,,*7F
$GPRMC,180646.000,A,3622.6870,N,02814.1432,E,0.22,11.54,110809,,,A*54
$GPGGA,180647.000,3622.6870,N,02814.1432,E,1,8,1.00,18.4,M,33.1,M,,*62
$GPGSA,A,3,21,16,31,24,30,22,29,18,,,,,1.36,1.00,0.91*0E
$GPGSV,3,1,11,21,83,309,34,29,51,068,28,24,47,045,35,16,37,314,22*72
$GPGSV,3,2,11,18,34,162,32,30,24,152,29,31,23,241,37,10,10,039,*70
$GPGSV,3,3,11,22,09,187,26,06,09,291,,45,,,*7E
$GPRMC,180647.000,A,3622.6870,N,02814.1432,E,0.37,8.10,110809,,,A*69
$GPGGA,180648.000,3622.6871,N,02814.1432,E,1,9,0.90,18.4,M,33.1,M,,*65
$GPGSA,A,3,21,16,31,24,30,22,10,29,18,,,,1.62,0.90,1.35*09
$GPGSV,3,1,11,21,83,309,34,29,51,068,28,24,47,045,35,16,37,314,23*73
$GPGSV,3,2,11,18,34,162,31,30,24,152,28,31,23,241,38,10,10,039,16*7A
$GPGSV,3,3,11,22,09,187,24,06,09,291,,45,,,*7C
$GPRMC,180648.000,A,3622.6871,N,02814.1432,E,0.51,13.03,110809,,,A*5F
$GPGGA,180649.000,3622.6873,N,02814.1433,E,1,9,0.89,18.4,M,33.1,M,,*6F
$GPGSA,A,3,21,16,31,24,30,22,10,29,18,,,,1.20,0.89,0.80*08
$GPGSV,3,1,11,21,83,309,33,29,51,068,29,24,47,045,35,16,37,314,22*74
$GPGSV,3,2,11,18,34,162,31,30,24,152,27,31,23,241,38,10,10,039,16*75
$GPGSV,3,3,11,22,09,187,24,06,09,291,,45,,,*7C
$GPRMC,180649.000,A,3622.6873,N,02814.1433,E,0.35,10.66,110809,,,A*5F
$GPGGA,180650.000,3622.6874,N,02814.1433,E,1,9,0.90,18.4,M,33.1,M,,*68
$GPGSA,A,3,21,16,31,24,30,22,10,29,18,,,,1.62,0.90,1.35*09
$GPGSV,3,1,11,21,83,309,32,29,51,068,28,24,46,045,35,16,37,314,22*75
$GPGSV,3,2,11,18,34,162,31,30,24,152,28,31,23,241,37,10,10,039,14*77
$GPGSV,3,3,11,22,09,187,23,06,09,291,,46,,,*78
$GPRMC,180650.000,A,3622.6874,N,02814.1433,E,0.63,13.11,110809,,,A*50
$GPGGA,180651.000,3622.6872,N,02814.1432,E,1,9,0.89,18.4,M,33.1,M,,*66
$GPGSA,A,3,21,16,31,24,30,22,10,29,18,,,,1.20,0.89,0.80*08
$GPGSV,3,1,11,21,83,309,31,29,51,068,28,24,46,045,34,16,37,314,23*76
$GPGSV,3,2,11,18,34,162,30,30,24,152,28,31,23,241,37,10,10,039,14*76
$GPGSV,3,3,11,22,09,187,22,06,09,291,,46,,,*79
$GPRMC,180651.000,A,3622.6872,N,02814.1432,E,0.57,19.13,110809,,,A*59
$GPGGA,180652.000,3622.6872,N,02814.1429,E,1,9,0.89,18.6,M,33.1,M,,*6D
$GPGSA,A,3,21,16,31,24,30,22,10,29,18,,,,1.20,0.89,0.80*08
$GPGSV,3,1,11,21,83,309,31,29,51,068,28,24,46,045,33,16,37,314,22*70
$GPGSV,3,2,11,18,34,162,30,30,24,152,28,31,23,241,38,10,10,039,17*7A
$GPGSV,3,3,11,22,09,187,22,06,09,291,,46,,,*79
$GPRMC,180652.000,A,3622.6872,N,02814.1429,E,0.54,20.74,110809,,,A*58
$GPGGA,180653.000,3622.6875,N,02814.1426,E,1,9,0.89,19.0,M,33.1,M,,*63
$GPGSA,A,3,21,16,31,24,30,22,10,29,18,,,,1.20,0.89,0.80*08
$GPGSV,3,1,11,21,83,309,31,29,51,068,28,24,46,045,32,16,37,314,21*72
$GPGSV,3,2,11,18,34,162,29,30,24,152,28,31,23,241,39,10,10,039,17*73
$GPGSV,3,3,11,22,09,187,23,06,09,291,,46,,,*78
$GPRMC,180653.000,A,3622.6875,N,02814.1426,E,0.34,19.87,110809,,,A*51
$GPGGA,180654.000,3622.6876,N,02814.1424,E,1,9,0.89,19.1,M,33.1,M,,*64
$GPGSA,A,3,21,16,31,24,30,22,10,29,18,,,,1.20,0.89,0.80*08
$GPGSV,3,1,11,21,83,309,31,29,51,068,29,24,46,045,32,16,37,314,22*70
$GPGSV,3,2,11,18,34,162,27,30,24,152,27,31,23,241,39,10,10,039,17*72
$GPGSV,3,3,11,22,09,187,23,06,09,291,,46,,,*78
$GPRMC,180654.000,A,3622.6876,N,02814.1424,E,0.55,22.48,110809,,,A*5B
$GPGGA,180655.000,3622.6878,N,02814.1425,E,1,9,0.89,19.1,M,33.1,M,,*6A
$GPGSA,A,3,21,16,31,24,30,22,10,29,18,,,,1.20,0.89,0.80*08
$GPGSV,3,1,11,21,83,309,31,29,51,068,30,24,46,045,33,16,37,314,29*72
$GPGSV,3,2,11,18,34,162,27,30,24,152,27,31,23,241,38,10,10,039,17*73
$GPGSV,3,3,11,22,09,187,24,06,09,291,,46,,,*7F
$GPRMC,180655.000,A,3622.6878,N,02814.1425,E,0.48,23.28,110809,,,A*5E
$GPGGA,180656.000,3622.6879,N,02814.1425,E,1,9,0.89,19.1,M,33.1,M,,*68
$GPGSA,A,3,21,16,31,24,30,22,10,29,18,,,,1.20,0.89,0.80*08
$GPGSV,3,1,11,21,83,309,32,29,51,068,30,24,46,045,32,16,37,314,30*78
$GPGSV,3,2,11,18,34,162,27,30,24,153,28,31,23,241,38,10,10,039,17*7D
$GPGSV,3,3,11,22,09,187,25,06,09,291,,49,,,*71
$GPRMC,180656.000,A,3622.6879,N,02814.1425,E,0.53,21.85,110809,,,A*53
$GPGGA,180657.000,3622.6880,N,02814.1426,E,1,9,0.89,19.0,M,33.1,M,,*6D
$GPGSA,A,3,21,16,31,24,30,22,10,29,18,,,,1.20,0.89,0.80*08
$GPGSV,3,1,11,21,83,309,32,29,51,068,28,24,46,045,33,16,37,314,39*79
$GPGSV,3,2,11,18,34,162,27,30,24,153,28,31,23,241,37,10,10,039,17*72
$GPGSV,3,3,11,22,09,187,26,06,09,291,,49,,,*72
$GPRMC,180657.000,A,3622.6880,N,02814.1426,E,0.44,21.02,110809,,,A*5E
$GPGGA,180658.000,3622.6881,N,02814.1426,E,1,9,0.89,19.0,M,33.1,M,,*63
$GPGSA,A,3,21,16,31,24,30,22,10,29,18,,,,1.20,0.89,0.80*08
$GPGSV,3,1,11,21,83,309,33,29,51,068,29,24,46,045,33,16,37,314,38*78
$GPGSV,3,2,11,18,34,162,27,30,24,153,28,31,23,241,37,10,10,039,17*72
$GPGSV,3,3,11,22,09,187,26,06,09,291,,49,,,*72
$GPRMC,180658.000,A,3622.6881,N,02814.1426,E,0.35,19.85,110809,,,A*52
$GPGGA,180659.000,3622.6882,N,02814.1427,E,1,9,0.89,19.0,M,33.1,M,,*60
$GPGSA,A,3,21,16,31,24,30,22,10,29,18,,,,1.20,0.89,0.80*08
$GPGSV,3,1,11,21,83,309,33,29,51,068,21,24,46,045,33,16,37,314,39*71
$GPGSV,3,2,11,18,34,162,28,30,24,153,28,31,23,241,37,10,10,039,17*7D
$GPGSV,3,3,11,22,09,187,26,06,09,291,,49,,,*72
$GPRMC,180659.000,A,3622.6882,N,02814.1427,E,0.51,41.89,110809,,,A*52
$GPGGA,180700.000,3622.6882,N,02814.1428,E,1,9,0.89,19.0,M,33.1,M,,*62
$GPGSA,A,3,21,16,31,24,30,22,10,29,18,,,,1.20,0.89,0.80*08
$GPGSV,3,1,11,21,83,309,32,29,51,068,23,24,46,045,33,16,37,314,39*72
$GPGSV,3,2,11,18,34,162,28,30,24,153,26,31,23,241,25,10,10,039,17*70
$GPGSV,3,3,11,22,09,187,28,06,09,291,,49,,,*7C
$GPRMC,180700.000,A,3622.6882,N,02814.1428,E,0.43,62.37,110809,,,A*57
$GPGGA,180701.000,3622.6881,N,02814.1430,E,1,9,0.89,19.0,M,33.1,M,,*69
$GPGSA,A,3,21,16,31,24,30,22,10,29,18,,,,1.20,0.89,0.80*08
$GPGSV,3,1,11,21,83,309,32,29,51,068,23,24,46,045,31,16,37,314,40*7E
$GPGSV,3,2,11,18,34,162,29,30,24,153,27,31,23,241,33,10,10,039,16*76
$GPGSV,3,3,11,22,09,187,30,06,09,291,,49,,,*75
$GPRMC,180701.000,A,3622.6881,N,02814.1430,E,0.48,82.52,110809,,,A*5A
$GPGGA,180702.000,3622.6880,N,02814.1431,E,1,9,0.89,19.0,M,33.1,M,,*6A
$GPGSA,A,3,21,16,31,24,30,22,10,29,18,,,,1.20,0.89,0.80*08
$GPGSV,3,1,11,21,83,309,32,29,51,068,24,37,49,191,,24,46,045,29*71
$GPGSV,3,2,11,16,37,314,41,18,34,162,28,30,24,153,26,31,23,241,33*7B
$GPGSV,3,3,11,10,10,039,17,22,09,187,31,06,09,291,*45
$GPRMC,180702.000,A,3622.6880,N,02814.1431,E,0.46,83.68,110809,,,A*5F
$GPGGA,180703.000,3622.6881,N,02814.1433,E,1,9,0.89,18.9,M,33.1,M,,*60
$GPGSA,A,3,21,16,31,24,30,22,10,29,18,,,,1.20,0.89,0.80*08
$GPGSV,3,1,11,21,83,309,32,29,51,068,25,37,49,191,,24,46,045,27*7E
$GPGSV,3,2,11,16,37,314,40,18,34,162,28,30,24,153,28,31,23,241,23*75
$GPGSV,3,3,11,10,10,039,19,22,09,187,31,06,09,291,*4B
$GPRMC,180703.000,A,3622.6881,N,02814.1433,E,0.56,86.86,110809,,,A*59
$GPGGA,180704.000,3622.6880,N,02814.1434,E,1,8,0.93,18.9,M,33.1,M,,*6B
$GPGSA,A,3,21,16,31,24,30,22,10,18,,,,,1.24,0.93,0.82*0E
$GPGSV,3,1,11,21,83,309,33,29,51,068,,37,49,191,,24,46,045,28*77
$GPGSV,3,2,11,16,37,314,39,18,34,162,28,30,24,153,30,31,23,241,24*75
$GPGSV,3,3,11,10,10,039,21,22,09,187,30,06,09,291,*41
$GPRMC,180704.000,A,3622.6880,N,02814.1434,E,0.59,86.12,110809,,,A*5A
$GPGGA,180705.000,3622.6882,N,02814.1437,E,1,9,0.89,18.9,M,33.1,M,,*61
$GPGSA,A,3,21,16,31,24,30,22,10,29,18,,,,1.20,0.89,0.80*08
$GPGSV,3,1,11,21,83,309,32,29,51,068,28,37,49,191,28,24,46,045,30*7F
$GPGSV,3,2,11,16,37,314,37,18,34,162,28,30,24,153,30,31,23,241,33*7D
$GPGSV,3,3,11,10,10,039,20,22,09,187,28,06,09,291,*49
$GPRMC,180705.000,A,3622.6882,N,02814.1437,E,0.43,85.67,110809,,,A*50
$GPGGA,180706.000,3622.6879,N,02814.1436,E,1,8,0.93,19.0,M,33.1,M,,*65
$GPGSA,A,3,21,16,31,24,30,22,10,18,,,,,1.24,0.93,0.82*0E
$GPGSV,3,1,11,21,83,309,32,29,51,068,20,37,49,191,31,24,46,045,31*7E
$GPGSV,3,2,11,16,37,314,45,18,34,162,27,30,24,153,30,31,23,241,34*70
$GPGSV,3,3,11,10,10,039,20,22,09,187,28,06,09,291,*49
$GPRMC,180706.000,A,3622.6879,N,02814.1436,E,0.42,94.37,110809,,,A*52
$GPGGA,180707.000,3622.6876,N,02814.1439,E,1,8,0.93,19.1,M,33.1,M,,*65
$GPGSA,A,3,21,16,31,24,30,10,29,18,,,,,1.25,0.93,0.83*05
$GPGSV,3,1,11,21,83,309,33,29,51,068,28,37,49,191,32,24,46,045,31*74
$GPGSV,3,2,11,16,37,314,45,18,34,162,26,30,24,153,30,31,23,241,34*71
$GPGSV,3,3,11,10,10,039,19,22,09,187,27,06,09,291,*4C
$GPRMC,180707.000,A,3622.6876,N,02814.1439,E,0.46,100.79,110809,,,A*61
$GPGGA,180708.000,3622.6880,N,02814.1442,E,1,9,0.89,19.2,M,33.1,M,,*66
$GPGSA,A,3,21,16,31,24,30,22,10,29,18,,,,1.20,0.89,0.80*08
$GPGSV,3,1,11,21,83,309,33,29,51,068,28,37,49,191,26,24,46,045,32*72
$GPGSV,3,2,11,16,37,314,44,18,34,162,25,30,24,153,30,31,23,241,33*74
$GPGSV,3,3,11,10,10,039,19,22,09,187,27,06,09,291,*4C
$GPRMC,180708.000,A,3622.6880,N,02814.1442,E,0.79,90.70,110809,,,A*56
$GPGGA,180709.000,3622.6883,N,02814.1447,E,1,8,0.93,19.2,M,33.1,M,,*6B
$GPGSA,A,3,21,16,31,24,30,10,29,18,,,,,1.25,0.93,0.83*05
$GPGSV,3,1,11,21,83,309,34,29,51,068,30,37,49,191,27,24,46,045,33*7C
$GPGSV,3,2,11,16,37,314,43,18,34,162,23,30,24,153,29,31,23,241,32*7C
$GPGSV,3,3,11,10,10,039,18,22,09,187,25,06,09,291,*4F
$GPRMC,180709.000,A,3622.6883,N,02814.1447,E,0.86,85.66,110809,,,A*52
$GPGGA,180710.000,3622.6883,N,02814.1448,E,1,9,0.89,19.0,M,33.1,M,,*64
$GPGSA,A,3,21,16,31,24,30,22,10,29,18,,,,1.20,0.89,0.80*08
$GPGSV,3,1,11,21,83,309,35,29,51,068,31,37,49,191,26,24,46,045,34*7A
$GPGSV,3,2,11,16,37,314,42,18,34,162,22,30,24,153,29,31,23,241,30*7E
$GPGSV,3,3,11,10,10,039,19,22,09,187,25,06,09,291,*4E
$GPRMC,180710.000,A,3622.6883,N,02814.1448,E,0.83,85.14,110809,,,A*55
$GPGGA,180711.000,3622.6882,N,02814.1449,E,1,9,0.90,19.2,M,33.1,M,,*6F
$GPGSA,A,3,21,16,31,24,30,22,10,29,18,,,,1.62,0.90,1.35*09
$GPGSV,3,1,11,21,83,309,35,29,51,068,33,37,49,191,26,24,46,045,35*79
$GPGSV,3,2,11,16,37,314,40,18,34,162,21,30,24,153,29,31,23,241,29*77
$GPGSV,3,3,11,10,10,039,20,22,09,187,25,06,09,291,*44
$GPRMC,180711.000,A,3622.6882,N,02814.1449,E,0.66,85.59,110809,,,A*56
$GPGGA,180712.000,3622.6885,N,02814.1447,E,1,9,0.89,19.1,M,33.1,M,,*6E
$GPGSA,A,3,21,16,31,24,30,22,10,29,18,,,,1.20,0.89,0.80*08
$GPGSV,3,1,11,21,83,309,35,29,51,068,33,37,49,191,26,24,46,045,35*79
$GPGSV,3,2,11,16,37,314,39,18,34,162,21,30,24,153,28,31,23,241,28*79
$GPGSV,3,3,11,10,10,039,21,22,09,187,25,06,09,291,*45
$GPRMC,180712.000,A,3622.6885,N,02814.1447,E,0.60,83.34,110809,,,A*57
$GPGGA,180713.000,3622.6887,N,02814.1450,E,1,9,0.90,19.4,M,33.1,M,,*66
$GPGSA,A,3,21,16,31,24,30,22,10,29,18,,,,1.62,0.90,1.35*09
$GPGSV,3,1,11,21,83,309,34,29,51,068,34,37,49,191,26,24,46,045,36*7C
$GPGSV,3,2,11,16,37,314,39,18,34,162,22,30,24,153,27,31,23,241,29*74
$GPGSV,3,3,11,10,10,039,30,22,09,187,24,06,09,291,*44
$GPRMC,180713.000,A,3622.6887,N,02814.1450,E,0.78,77.81,110809,,,A*5E
$GPGGA,180714.000,3622.6898,N,02814.1464,E,1,8,0.93,19.6,M,33.1,M,,*68
$GPGSA,A,3,21,16,31,24,30,10,29,18,,,,,1.76,0.93,1.49*04
$GPGSV,3,1,11,21,83,309,33,29,51,068,34,37,49,191,25,24,46,045,36*78
$GPGSV,3,2,11,16,37,314,38,18,34,162,22,30,24,153,25,31,23,241,30*7F
$GPGSV,3,3,11,10,10,039,23,22,09,187,17,06,09,291,*46
$GPRMC,180714.000,A,3622.6898,N,02814.1464,E,1.71,66.74,110809,,,A*52
$GPGGA,180715.000,3622.6906,N,02814.1467,E,1,9,0.89,19.3,M,33.1,M,,*63
$GPGSA,A,3,21,16,31,24,30,22,10,29,18,,,,1.20,0.89,0.80*08
$GPGSV,3,1,11,21,83,309,32,29,51,068,33,37,49,191,25,24,46,045,28*71
$GPGSV,3,2,11,16,37,314,38,18,34,162,22,30,24,153,25,31,23,241,31*7E
$GPGSV,3,3,11,10,10,039,25,22,09,187,18,06,09,291,*4F
$GPRMC,180715.000,A,3622.6906,N,02814.1467,E,4.46,37.56,110809,,,A*53
$GPGGA,180716.000,3622.6918,N,02814.1473,E,1,9,0.90,18.6,M,33.1,M,,*66
$GPGSA,A,3,21,16,31,24,30,22,10,29,18,,,,1.62,0.90,1.35*09
$GPGSV,3,1,11,21,83,309,32,29,51,068,32,37,49,191,25,24,46,045,27*7F
$GPGSV,3,2,11,16,37,314,38,18,34,162,24,30,24,153,27,31,23,241,31*7A
$GPGSV,3,3,11,10,10,039,27,22,09,187,19,06,09,291,*4C
$GPRMC,180716.000,A,3622.6918,N,02814.1473,E,3.38,30.43,110809,,,A*57
$GPGGA,180717.000,3622.6922,N,02814.1473,E,1,9,0.89,18.3,M,33.1,M,,*63
$GPGSA,A,3,21,16,31,24,30,22,10,29,18,,,,1.20,0.89,0.80*08
$GPGSV,3,1,11,21,83,309,31,29,51,068,32,37,49,191,25,24,46,045,28*73
$GPGSV,3,2,11,16,37,314,38,18,34,162,24,30,24,153,27,31,23,241,33*78
$GPGSV,3,3,11,10,10,039,27,22,09,187,19,06,09,291,*4C
$GPRMC,180717.000,A,3622.6922,N,02814.1473,E,0.11,30.43,110809,,,A*57
$GPGGA,180718.000,3622.6919,N,02814.1473,E,1,9,0.89,17.9,M,33.1,M,,*61
$GPGSA,A,3,21,16,31,24,30,22,10,29,18,,,,1.20,0.89,0.80*08
$GPGSV,3,1,11,21,83,309,31,29,51,068,32,39,47,185,,24,46,045,27*7E
$GPGSV,3,2,11,16,37,314,38,18,34,162,23,30,24,153,26,31,23,241,42*78
$GPGSV,3,3,11,10,10,039,16,22,09,187,21,06,09,291,*45
$GPRMC,180718.000,A,3622.6919,N,02814.1473,E,0.07,30.43,110809,,,A*57
$GPGGA,180719.000,3622.6922,N,02814.1469,E,1,8,0.93,17.9,M,33.1,M,,*69
$GPGSA,A,3,21,16,31,24,30,22,10,18,,,,,1.24,0.93,0.82*0E
$GPGSV,3,1,11,21,83,311,30,29,51,068,24,39,47,185,31,24,46,045,20*74
$GPGSV,3,2,11,16,37,314,38,18,34,162,25,30,24,153,33,31,23,241,43*7B
$GPGSV,3,3,11,10,10,039,16,22,09,187,32,06,09,291,*47
$GPRMC,180719.000,A,3622.6922,N,02814.1469,E,0.91,134.62,110809,,,A*6C
$GPGGA,180720.000,3622.6914,N,02814.1468,E,1,8,0.93,17.8,M,33.1,M,,*66
$GPGSA,A,3,21,16,31,24,30,22,10,18,,,,,1.24,0.93,0.82*0E
$GPGSV,3,1,11,21,83,311,29,29,51,068,23,39,47,185,31,24,46,045,19*71
$GPGSV,3,2,11,16,37,314,30,18,34,162,37,30,24,153,34,31,23,241,43*77
$GPGSV,3,3,11,10,10,039,16,22,09,187,34,06,09,291,*41
$GPRMC,180720.000,A,3622.6914,N,02814.1468,E,1.64,200.41,110809,,,A*6C
$GPGGA,180721.000,3622.6910,N,02814.1466,E,1,8,0.93,17.6,M,33.1,M,,*63
$GPGSA,A,3,21,16,31,24,30,22,10,18,,,,,1.24,0.93,0.82*0E
$GPGSV,3,1,11,21,83,311,29,29,51,068,22,39,47,185,27,24,46,045,20*7D
$GPGSV,3,2,11,16,37,314,30,18,34,162,38,30,24,153,36,31,23,241,42*7B
$GPGSV,3,3,11,10,10,039,16,22,09,187,34,06,09,291,*41
$GPRMC,180721.000,A,3622.6910,N,02814.1466,E,2.18,185.71,110809,,,A*62
$GPGGA,180722.000,3622.6904,N,02814.1461,E,1,9,0.89,17.2,M,33.1,M,,*6C
$GPGSA,A,3,21,16,31,24,30,22,10,29,18,,,,1.20,0.89,0.80*08
$GPGSV,3,1,11,21,83,311,29,29,51,068,23,39,47,185,33,24,46,045,21*78
$GPGSV,3,2,11,16,37,314,29,18,34,162,38,30,24,153,36,31,23,241,42*73
$GPGSV,3,3,11,10,10,039,16,22,09,187,32,06,09,291,*47
$GPRMC,180722.000,A,3622.6904,N,02814.1461,E,1.60,203.24,110809,,,A*62
$GPGGA,180723.000,3622.6901,N,02814.1455,E,1,9,0.89,17.0,M,33.1,M,,*6D
$GPGSA,A,3,21,16,31,24,30,22,10,29,18,,,,1.20,0.89,0.80*08
$GPGSV,3,1,11,21,83,311,30,29,51,068,30,39,47,185,33,24,46,045,20*73
$GPGSV,3,2,11,16,37,314,30,18,34,162,39,30,24,153,37,31,23,241,40*79
$GPGSV,3,3,11,10,10,039,17,22,09,187,23,06,09,291,*46
$GPRMC,180723.000,A,3622.6901,N,02814.1455,E,1.01,202.90,110809,,,A*68
$GPGGA,180724.000,3622.6901,N,02814.1455,E,1,9,0.89,17.0,M,33.1,M,,*6A
$GPGSA,A,3,21,16,31,24,30,22,10,29,18,,,,1.20,0.89,0.80*08
$GPGSV,3,1,11,21,83,311,31,29,51,068,30,39,47,185,32,24,46,045,21*72
$GPGSV,3,2,11,16,37,314,38,18,34,162,31,30,24,153,35,31,23,241,39*75
$GPGSV,3,3,11,10,10,039,17,22,09,187,23,06,09,291,*46
$GPRMC,180724.000,A,3622.6901,N,02814.1455,E,0.52,202.90,110809,,,A*68
$GPGGA,180725.000,3622.6900,N,02814.1457,E,1,9,0.89,17.1,M,33.1,M,,*69
$GPGSA,A,3,21,16,31,24,30,22,10,29,18,,,,1.20,0.89,0.80*08
$GPGSV,3,1,11,21,83,311,32,29,51,068,29,39,47,185,30,24,46,045,23*79
$GPGSV,3,2,11,16,37,314,39,18,34,162,30,30,24,153,24,31,23,241,39*75
$GPGSV,3,3,11,10,10,039,17,22,09,187,23,06,09,291,*46
$GPRMC,180725.000,A,3622.6900,N,02814.1457,E,0.94,82.17,110809,,,A*55
$GPGGA,180726.000,3622.6898,N,02814.1459,E,1,9,0.89,17.0,M,33.1,M,,*65
$GPGSA,A,3,21,16,31,24,30,22,10,29,18,,,,1.20,0.89,0.80*08
$GPGSV,3,1,11,21,83,311,32,29,51,068,30,39,47,185,28,24,46,045,33*79
$GPGSV,3,2,11,16,37,314,40,18,34,162,22,30,24,153,24,31,23,241,39*78
$GPGSV,3,3,11,10,10,039,18,22,09,187,24,06,09,291,*4E
$GPRMC,180726.000,A,3622.6898,N,02814.1459,E,0.87,110.45,110809,,,A*67
$GPGGA,180727.000,3622.6899,N,02814.1457,E,1,9,0.89,17.1,M,33.1,M,,*6A
$GPGSA,A,3,21,16,31,24,30,22,10,29,18,,,,1.20,0.89,0.80*08
$GPGSV,3,1,11,21,83,311,32,29,51,069,31,39,47,185,27,24,46,045,33*76
$GPGSV,3,2,11,16,37,314,40,18,34,162,21,30,24,153,23,31,23,241,39*7C
$GPGSV,3,3,11,10,10,039,19,22,09,187,24,06,09,291,*4F
$GPRMC,180727.000,A,3622.6899,N,02814.1457,E,0.86,100.83,110809,,,A*63
$GPGGA,180728.000,3622.6898,N,02814.1457,E,1,8,0.93,17.1,M,33.1,M,,*6E
$GPGSA,A,3,21,16,31,24,30,10,29,18,,,,,1.25,0.93,0.83*05
$GPGSV,3,1,11,21,83,311,32,29,51,069,31,39,47,185,26,24,46,045,33*77
$GPGSV,3,2,11,16,37,314,40,18,34,162,20,30,24,153,23,31,23,241,38*7C
$GPGSV,3,3,11,10,10,039,19,22,09,187,23,06,09,291,*48
$GPRMC,180728.000,A,3622.6898,N,02814.1457,E,0.81,123.21,110809,,,A*63
$GPGGA,180729.000,3622.6898,N,02814.1458,E,1,8,0.93,16.9,M,33.1,M,,*69
$GPGSA,A,3,21,16,31,24,30,22,10,18,,,,,1.24,0.93,0.82*0E
$GPGSV,3,1,11,21,83,311,33,29,51,069,18,39,47,185,26,24,46,045,32*7C
$GPGSV,3,2,11,16,37,314,40,18,34,162,29,30,24,153,31,31,23,241,38*76
$GPGSV,3,3,11,10,10,039,18,22,09,187,22,06,09,291,*48
$GPRMC,180729.000,A,3622.6898,N,02814.1458,E,0.59,101.95,110809,,,A*67
$GPGGA,180730.000,3622.6897,N,02814.1459,E,1,8,0.93,16.8,M,33.1,M,,*6E
$GPGSA,A,3,21,16,31,24,30,22,10,18,,,,,1.24,0.93,0.82*0E
$GPGSV,3,1,11,21,83,311,33,29,51,069,18,39,47,185,26,24,46,045,25*7A
$GPGSV,3,2,11,16,37,314,40,18,34,162,29,30,24,153,31,31,23,241,39*77
$GPGSV,3,3,11,10,10,039,17,22,09,187,22,06,09,291,*47
$GPRMC,180730.000,A,3622.6897,N,02814.1459,E,0.53,101.95,110809,,,A*6B
$GPGGA,180731.000,3622.6895,N,02814.1461,E,1,8,0.93,16.7,M,33.1,M,,*69
$GPGSA,A,3,21,16,31,24,30,10,29,18,,,,,1.25,0.93,0.83*05
$GPGSV,3,1,11,21,83,311,33,29,51,069,27,39,47,185,26,24,46,045,27*74
$GPGSV,3,2,11,16,37,314,41,18,34,162,29,30,24,153,30,31,23,241,40*79
$GPGSV,3,3,11,10,10,039,16,22,09,187,21,06,09,291,*45
$GPRMC,180731.000,A,3622.6895,N,02814.1461,E,0.70,88.69,110809,,,A*51
$GPGGA,180732.000,3622.6894,N,02814.1462,E,1,8,0.93,16.6,M,33.1,M,,*69
$GPGSA,A,3,21,16,31,24,30,10,29,18,,,,,1.25,0.93,0.83*05
$GPGSV,3,1,11,21,83,311,33,29,51,069,29,39,47,185,26,24,46,045,29*74
$GPGSV,3,2,11,16,37,314,41,18,34,162,22,30,24,153,29,31,23,241,40*7A
$GPGSV,3,3,11,10,10,039,17,22,09,187,20,06,09,291,*45
$GPRMC,180732.000,A,3622.6894,N,02814.1462,E,0.63,88.69,110809,,,A*52
$GPGGA,180733.000,3622.6891,N,02814.1460,E,1,8,0.93,16.3,M,33.1,M,,*6A
$GPGSA,A,3,21,16,31,24,30,10,29,18,,,,,1.25,0.93,0.83*05
$GPGSV,3,1,11,21,83,311,33,29,51,069,29,39,47,185,25,24,46,045,29*77
$GPGSV,3,2,11,16,37,314,41,18,34,162,24,30,24,153,29,31,23,241,40*7C
$GPGSV,3,3,11,10,10,039,19,22,09,187,19,06,09,291,*41
$GPRMC,180733.000,A,3622.6891,N,02814.1460,E,0.61,88.69,110809,,,A*56
$GPGGA,180734.000,3622.6890,N,02814.1458,E,1,7,0.99,16.2,M,33.1,M,,*63
$GPGSA,A,3,21,16,31,24,30,22,10,,,,,,1.29,0.99,0.83*01
$GPGSV,3,1,11,21,83,311,34,29,51,069,,39,47,185,26,24,46,045,30*70
$GPGSV,3,2,11,16,37,314,40,18,34,162,,30,24,153,30,31,23,241,40*73
$GPGSV,3,3,11,10,10,039,18,22,09,187,21,06,09,291,*4B
$GPRMC,180734.000,A,3622.6890,N,02814.1458,E,0.57,88.69,110809,,,A*5E
$GPGGA,180735.000,3622.6889,N,02814.1456,E,1,8,0.93,16.2,M,33.1,M,,*61
$GPGSA,A,3,21,16,31,24,30,10,29,18,,,,,1.25,0.93,0.83*05
$GPGSV,3,1,11,21,83,311,34,29,51,069,19,39,47,185,26,24,46,045,30*78
$GPGSV,3,2,11,16,37,314,40,18,34,162,21,30,24,153,31,31,23,241,39*7F
$GPGSV,3,3,11,10,10,039,17,22,09,187,21,06,09,291,*44
$GPRMC,180735.000,A,3622.6889,N,02814.1456,E,0.29,88.69,110809,,,A*50
$GPGGA,180736.000,3622.6890,N,02814.1457,E,1,8,0.93,16.1,M,33.1,M,,*68
$GPGSA,A,3,21,16,31,24,30,10,29,18,,,,,1.25,0.93,0.83*05
$GPGSV,3,1,11,21,83,311,33,29,51,069,24,39,47,185,26,24,46,045,29*79
$GPGSV,3,2,11,16,37,314,40,18,34,162,27,30,24,153,32,31,23,241,39*7A
$GPGSV,3,3,11,10,10,039,16,22,09,187,20,06,09,291,*44
$GPRMC,180736.000,A,3622.6890,N,02814.1457,E,0.10,88.69,110809,,,A*50
$GPGGA,180737.000,3622.6890,N,02814.1457,E,1,8,0.93,16.1,M,33.1,M,,*69
$GPGSA,A,3,21,16,31,24,30,10,29,18,,,,,1.25,0.93,0.83*05
$GPGSV,3,1,11,21,83,311,33,29,51,069,34,39,47,185,26,24,46,045,30*70
$GPGSV,3,2,11,16,37,314,40,18,34,162,23,30,24,153,30,31,23,241,40*72
$GPGSV,3,3,11,10,10,039,16,22,09,187,19,06,09,291,*4E
$GPRMC,180737.000,A,3622.6890,N,02814.1457,E,0.03,88.69,110809,,,A*53
$GPGGA,180738.000,3622.6890,N,02814.1457,E,1,8,0.93,16.0,M,33.1,M,,*67
$GPGSA,A,3,21,16,31,24,30,10,29,18,,,,,1.25,0.93,0.83*05
$GPGSV,3,1,11,21,83,311,33,29,51,069,33,39,47,185,26,24,46,045,30*77
$GPGSV,3,2,11,16,37,314,40,18,34,162,23,30,24,153,29,31,23,241,40*7A
$GPGSV,3,3,11,10,10,039,17,22,09,187,18,06,09,291,*4E
$GPRMC,180738.000,A,3622.6890,N,02814.1457,E,0.10,88.69,110809,,,A*5E
$GPGGA,180739.000,3622.6890,N,02814.1457,E,1,8,0.93,16.0,M,33.1,M,,*66
$GPGSA,A,3,21,16,31,24,30,10,29,18,,,,,1.25,0.93,0.83*05
$GPGSV,3,1,11,21,83,311,33,29,51,069,26,39,47,185,26,24,46,045,28*7A
$GPGSV,3,2,11,16,37,314,40,18,34,162,33,30,24,153,29,31,23,241,39*75
$GPGSV,3,3,11,10,10,039,17,22,09,187,18,06,09,291,*4E
$GPRMC,180739.000,A,3622.6890,N,02814.1457,E,0.32,88.69,110809,,,A*5F
$GPGGA,180740.000,3622.6889,N,02814.1458,E,1,8,0.93,16.0,M,33.1,M,,*6F
$GPGSA,A,3,21,16,31,24,30,10,29,18,,,,,1.25,0.93,0.83*05
$GPGSV,3,1,11,21,83,311,33,29,51,069,23,39,47,185,26,24,46,045,27*70
$GPGSV,3,2,11,16,37,314,41,18,34,162,28,30,24,153,30,31,23,241,39*76
$GPGSV,3,3,11,10,10,039,17,22,09,187,19,06,09,291,*4F
$GPRMC,180740.000,A,3622.6889,N,02814.1458,E,0.67,152.89,110809,,,A*6E
$GPGGA,180741.000,3622.6886,N,02814.1461,E,1,8,0.93,15.8,M,33.1,M,,*60
$GPGSA,A,3,21,16,31,24,30,10,29,18,,,,,1.25,0.93,0.83*05
$GPGSV,3,1,11,21,83,311,32,29,51,069,22,39,47,185,27,24,46,045,29*7F
$GPGSV,3,2,11,16,37,314,41,18,34,162,29,30,24,153,31,31,23,241,38*77
$GPGSV,3,3,11,10,10,039,17,22,09,187,20,06,09,291,*45
$GPRMC,180741.000,A,3622.6886,N,02814.1461,E,0.45,152.89,110809,,,A*6A
$GPGGA,180742.000,3622.6884,N,02814.1457,E,1,7,0.97,15.6,M,33.1,M,,*61
$GPGSA,A,3,21,16,31,30,10,29,18,,,,,,1.28,0.97,0.84*0D
$GPGSV,3,1,11,21,83,311,32,29,51,069,23,39,47,185,28,24,46,045,21*79
$GPGSV,3,2,11,16,37,314,42,18,34,162,31,30,24,153,32,31,23,241,37*71
$GPGSV,3,3,11,10,10,039,17,22,09,187,22,06,09,291,*47
$GPRMC,180742.000,A,3622.6884,N,02814.1457,E,0.52,153.34,110809,,,A*6F
$GPGGA,180743.000,3622.6883,N,02814.1450,E,1,7,0.97,15.4,M,33.1,M,,*62
$GPGSA,A,3,21,16,31,30,10,29,18,,,,,,1.28,0.97,0.84*0D
$GPGSV,3,1,11,21,83,311,32,29,51,069,22,24,46,045,21,16,37,314,43*75
$GPGSV,3,2,11,18,34,162,33,44,32,127,,30,24,153,33,31,23,241,36*75
$GPGSV,3,3,11,10,10,039,16,22,09,187,22,06,09,291,*46
$GPRMC,180743.000,A,3622.6883,N,02814.1450,E,0.21,153.34,110809,,,A*6A
$GPGGA,180744.000,3622.6882,N,02814.1451,E,1,7,0.97,15.0,M,33.1,M,,*61
$GPGSA,A,3,21,16,31,30,10,29,18,,,,,,1.28,0.97,0.84*0D
$GPGSV,3,1,11,21,83,311,31,29,51,069,24,24,46,045,21,16,37,314,43*70
$GPGSV,3,2,11,18,34,162,35,44,32,127,,30,24,153,34,31,23,241,36*74
