$GPGGA,062142.000,3624.1800,N,02805.3598,E,1,8,1.14,-14.6,M,33.2,M,,*4D
$GPGSA,A,3,07,08,02,25,10,04,13,23,,,,,1.43,1.14,0.86*02
$GPGSV,3,1,11,07,66,025,22,08,64,263,24,37,49,191,,13,47,074,29*79
$GPGSV,3,2,11,25,45,044,21,10,31,314,31,28,26,179,,02,18,258,27*7A
$GPGSV,3,3,11,23,15,098,17,04,14,225,23,03,04,064,27*4E
$GPRMC,062142.000,A,3624.1800,N,02805.3598,E,0.19,55.32,140809,,,A*52
$GPGGA,062143.000,3624.1795,N,02805.3591,E,1,8,1.14,-16.5,M,33.2,M,,*47
$GPGSA,A,3,07,08,02,25,10,04,13,23,,,,,1.43,1.14,0.86*02
$GPGSV,3,1,11,07,66,025,21,08,64,263,24,13,47,074,29,39,47,185,*7F
$GPGSV,3,2,11,25,45,044,21,10,31,314,31,28,26,179,,02,18,258,27*7A
$GPGSV,3,3,11,23,15,098,16,04,14,225,23,03,04,064,27*4F
$GPRMC,062143.000,A,3624.1795,N,02805.3591,E,0.27,55.32,140809,,,A*54
$GPGGA,062144.000,3624.1789,N,02805.3592,E,1,8,1.14,-17.2,M,33.2,M,,*48
$GPGSA,A,3,07,08,02,25,10,04,13,23,,,,,1.43,1.14,0.86*02
$GPGSV,3,1,11,07,66,025,19,08,64,263,22,13,47,074,29,39,47,185,*72
$GPGSV,3,2,11,25,45,044,22,10,31,314,31,28,26,179,,02,18,258,26*78
$GPGSV,3,3,11,23,15,098,15,04,14,225,23,03,04,064,27*4C
$GPRMC,062144.000,A,3624.1789,N,02805.3592,E,0.35,55.32,140809,,,A*5E
$GPGGA,062145.000,3624.1784,N,02805.3593,E,1,8,1.14,-17.5,M,33.2,M,,*42
$GPGSA,A,3,07,08,02,25,10,04,13,23,,,,,1.43,1.14,0.86*02
$GPGSV,3,1,11,07,66,025,17,08,64,263,21,13,47,074,29,39,47,185,*7F
$GPGSV,3,2,11,25,45,044,22,10,31,314,31,28,26,179,,02,18,258,25*7B
$GPGSV,3,3,11,23,15,098,16,04,14,225,23,03,04,064,27*4F
$GPRMC,062145.000,A,3624.1784,N,02805.3593,E,0.19,55.32,140809,,,A*5D
$GPGGA,062146.000,3624.1776,N,02805.3597,E,1,8,1.14,-16.9,M,33.2,M,,*45
$GPGSA,A,3,07,08,02,25,10,04,13,23,,,,,1.43,1.14,0.86*02
$GPGSV,3,1,11,07,66,025,16,08,64,263,20,13,47,074,29,39,47,185,*7F
$GPGSV,3,2,11,25,45,044,22,10,31,314,31,28,26,179,,02,18,258,25*7B
$GPGSV,3,3,11,23,15,098,16,04,14,225,22,03,04,064,27*4E
$GPRMC,062146.000,A,3624.1776,N,02805.3597,E,0.17,55.32,140809,,,A*59
$GPGGA,062147.000,3624.1758,N,02805.3607,E,1,9,0.93,-14.6,M,33.2,M,,*40
$GPGSA,A,3,07,08,02,25,10,04,13,23,28,,,,1.26,0.93,0.85*06
$GPGSV,3,1,11,07,66,025,18,08,64,263,19,13,47,074,30,39,47,185,*73
$GPGSV,3,2,11,25,45,044,23,10,31,314,31,28,26,179,25,02,18,258,26*7E
$GPGSV,3,3,11,23,15,098,17,04,14,225,22,03,04,064,27*4F
$GPRMC,062147.000,A,3624.1758,N,02805.3607,E,0.08,55.32,140809,,,A*50
$GPGGA,062148.000,3624.1729,N,02805.3616,E,1,9,0.93,-12.4,M,33.2,M,,*4D
$GPGSA,A,3,07,08,02,25,10,04,13,23,28,,,,1.26,0.93,0.85*06
$GPGSV,3,1,11,07,66,025,20,08,64,263,18,13,47,074,31,39,47,185,*78
$GPGSV,3,2,11,25,45,044,24,10,31,314,31,28,26,179,18,02,18,258,26*77
$GPGSV,3,3,11,23,15,098,18,04,14,225,24,03,04,064,27*46
$GPRMC,062148.000,A,3624.1729,N,02805.3616,E,0.22,55.32,140809,,,A*51
$GPGGA,062149.000,3624.1725,N,02805.3625,E,1,9,0.93,-12.8,M,33.2,M,,*4C
$GPGSA,A,3,07,08,02,25,10,04,13,23,28,,,,1.26,0.93,0.85*06
$GPGSV,3,1,11,07,66,025,21,08,64,263,17,13,47,074,32,39,47,185,*75
$GPGSV,3,2,11,25,45,044,25,10,31,314,31,28,26,179,25,02,18,258,27*79
$GPGSV,3,3,11,23,15,098,18,04,14,225,25,03,04,064,27*47
$GPRMC,062149.000,A,3624.1725,N,02805.3625,E,0.34,55.32,140809,,,A*5B
$GPGGA,062150.000,3624.1718,N,02805.3629,E,1,9,0.93,-13.6,M,33.2,M,,*49
$GPGSA,A,3,07,08,02,25,10,04,13,23,28,,,,1.26,0.93,0.85*06
$GPGSV,3,1,11,07,66,025,22,08,64,263,17,13,47,074,31,39,47,185,*75
$GPGSV,3,2,11,25,45,044,25,10,31,314,23,28,26,179,19,02,18,258,27*75
$GPGSV,3,3,11,23,15,098,26,04,14,225,24,03,04,064,19*46
$GPRMC,062150.000,A,3624.1718,N,02805.3629,E,0.35,55.32,140809,,,A*50
$GPGGA,062151.000,3624.1712,N,02805.3632,E,1,9,0.93,-13.6,M,33.2,M,,*48
$GPGSA,A,3,07,08,02,25,10,04,13,23,28,,,,1.26,0.93,0.85*06
$GPGSV,3,1,11,07,66,025,21,08,64,263,18,13,47,074,30,39,47,185,*78
$GPGSV,3,2,11,25,45,044,18,10,31,314,32,28,26,179,19,02,18,258,27*7B
$GPGSV,3,3,11,23,15,098,25,04,14,225,24,03,04,064,19*45
$GPRMC,062151.000,A,3624.1712,N,02805.3632,E,0.35,55.32,140809,,,A*51
$GPGGA,062152.000,3624.1709,N,02805.3631,E,1,9,0.93,-13.3,M,33.2,M,,*47
$GPGSA,A,3,07,08,02,25,10,04,13,23,28,,,,1.26,0.93,0.85*06
$GPGSV,3,1,11,07,66,025,22,08,64,263,19,13,47,074,30,25,45,044,19*71
$GPGSV,3,2,11,44,32,127,,10,31,314,32,28,26,179,21,02,18,258,25*78
$GPGSV,3,3,11,23,15,098,18,04,14,225,25,03,04,064,20*40
$GPRMC,062152.000,A,3624.1709,N,02805.3631,E,0.27,55.32,140809,,,A*58
$GPGGA,062153.000,3624.1699,N,02805.3630,E,1,9,0.93,-13.0,M,33.2,M,,*4C
$GPGSA,A,3,07,08,02,25,10,04,13,23,28,,,,1.26,0.93,0.85*06
$GPGSV,3,1,11,07,66,025,21,08,64,263,18,13,47,074,29,25,45,044,19*7B
$GPGSV,3,2,11,44,32,127,,10,31,314,31,28,26,179,22,02,18,258,26*7B
$GPGSV,3,3,11,23,15,098,18,04,14,225,26,03,04,064,20*43
$GPRMC,062153.000,A,3624.1699,N,02805.3630,E,0.17,55.32,140809,,,A*53
$GPGGA,062154.000,3624.1696,N,02805.3630,E,1,9,0.93,-13.4,M,33.2,M,,*40
$GPGSA,A,3,07,08,02,25,10,04,13,23,28,,,,1.26,0.93,0.85*06
$GPGSV,3,1,11,07,66,025,22,08,64,263,25,13,47,074,29,25,45,044,21*7D
$GPGSV,3,2,11,44,32,127,,10,31,314,29,28,26,179,22,02,18,258,26*72
$GPGSV,3,3,11,23,15,098,29,04,14,225,25,03,04,064,19*48
$GPRMC,062154.000,A,3624.1696,N,02805.3630,E,0.28,55.32,140809,,,A*57
$GPGGA,062155.000,3624.1696,N,02805.3634,E,1,9,0.93,-14.3,M,33.2,M,,*45
$GPGSA,A,3,07,08,02,25,10,04,13,23,28,,,,1.26,0.93,0.85*06
$GPGSV,3,1,11,07,66,025,20,08,64,263,26,13,47,074,29,25,45,044,19*77
$GPGSV,3,2,11,44,32,127,,10,31,314,29,28,26,179,20,02,18,258,24*72
$GPGSV,3,3,11,23,15,098,29,04,14,225,25,03,04,064,18*49
$GPRMC,062155.000,A,3624.1696,N,02805.3634,E,0.11,55.32,140809,,,A*58
$GPGGA,062156.000,3624.1690,N,02805.3635,E,1,9,0.93,-13.8,M,33.2,M,,*4D
$GPGSA,A,3,07,08,02,25,10,04,13,23,28,,,,1.26,0.93,0.85*06
$GPGSV,3,1,11,07,66,025,20,08,65,263,26,13,47,074,28,25,45,044,21*7C
$GPGSV,3,2,11,44,32,127,,10,31,314,29,28,26,179,22,02,18,258,17*70
$GPGSV,3,3,11,23,15,098,27,04,14,225,25,03,04,064,20*4C
$GPRMC,062156.000,A,3624.1690,N,02805.3635,E,0.12,55.32,140809,,,A*5F
$GPGGA,062157.000,3624.1687,N,02805.3637,E,1,9,0.93,-13.5,M,33.2,M,,*45
$GPGSA,A,3,07,08,02,25,10,04,13,23,28,,,,1.26,0.93,0.85*06
$GPGSV,3,1,11,07,66,025,22,08,65,263,26,13,47,074,28,25,45,044,22*7D
$GPGSV,3,2,11,44,32,127,,10,31,314,28,28,26,179,22,02,18,258,17*71
$GPGSV,3,3,11,23,15,098,26,04,14,225,24,03,04,064,22*4E
$GPRMC,062157.000,A,3624.1687,N,02805.3637,E,0.05,55.32,140809,,,A*5C
$GPGGA,062158.000,3624.1682,N,02805.3638,E,1,9,0.93,-12.8,M,33.2,M,,*4C
$GPGSA,A,3,07,08,02,25,10,04,13,23,28,,,,1.26,0.93,0.85*06
$GPGSV,3,1,11,07,66,025,23,08,65,263,27,13,47,074,17,25,45,044,23*70
$GPRMC,062846.000,A,3624.2561,N,02805.3641,E,0.25,37.44,140809,,,A*5B
$GPGGA,062847.000,3624.2561,N,02805.3642,E,1,7,1.03,-15.6,M,33.2,M,,*44
$GPGSA,A,3,08,02,13,10,04,23,28,,,,,,1.34,1.03,0.86*0E
$GPGSV,3,1,11,08,66,270,17,07,63,028,,13,46,078,18,25,42,045,*7E
$GPGSV,3,2,11,10,33,312,15,28,29,179,22,02,16,255,15,23,13,100,16*75
$GPGSV,3,3,11,04,12,223,15,03,04,061,,19,01,085,*4D
$GPRMC,062847.000,A,3624.2561,N,02805.3642,E,0.44,37.44,140809,,,A*5E
$GPGGA,062848.000,3624.2560,N,02805.3643,E,1,7,1.03,-15.6,M,33.2,M,,*4B
$GPGSA,A,3,08,02,13,10,04,23,28,,,,,,1.34,1.03,0.86*0E
$GPGSV,3,1,11,08,66,270,17,07,63,028,,13,46,078,18,25,42,045,*7E
$GPGSV,3,2,11,10,33,312,15,28,29,179,22,02,16,255,16,23,13,100,16*76
$GPGSV,3,3,11,04,12,223,16,03,04,061,,19,01,085,*4E
$GPRMC,062848.000,A,3624.2560,N,02805.3643,E,0.37,37.44,140809,,,A*55
$GPGGA,062849.000,3624.2559,N,02805.3644,E,1,7,1.03,-15.6,M,33.2,M,,*47
$GPGSA,A,3,08,02,13,10,04,23,28,,,,,,1.34,1.03,0.86*0E
$GPGSV,3,1,11,08,66,270,16,07,63,028,,13,46,078,17,25,42,045,*70
$GPGSV,3,2,11,10,33,312,16,28,29,179,22,02,16,255,24,23,13,100,16*74
$GPGSV,3,3,11,04,12,223,17,03,04,061,,19,01,085,*4F
$GPRMC,062849.000,A,3624.2559,N,02805.3644,E,0.25,37.44,140809,,,A*5A
$GPGGA,062850.000,3624.2559,N,02805.3644,E,1,7,1.03,-15.6,M,33.2,M,,*4F
$GPGSA,A,3,08,02,13,10,04,23,28,,,,,,1.34,1.03,0.86*0E
$GPGSV,3,1,11,08,66,270,15,07,63,028,,13,46,078,16,25,42,045,*72
$GPGSV,3,2,11,10,33,312,17,28,29,179,21,02,16,255,24,23,13,100,16*76
$GPGSV,3,3,11,04,12,223,16,03,04,061,,19,01,085,*4E
$GPRMC,062850.000,A,3624.2559,N,02805.3644,E,0.22,37.44,140809,,,A*55
$GPGGA,062851.000,3624.2559,N,02805.3645,E,1,7,1.03,-15.6,M,33.2,M,,*4F
$GPGSA,A,3,08,02,13,10,04,23,28,,,,,,1.34,1.03,0.86*0E
$GPGSV,3,1,11,08,66,270,14,07,63,028,,13,46,078,16,25,42,045,*73
$GPGSV,3,2,11,10,33,312,18,28,29,179,22,02,16,255,24,23,13,100,16*7A
$GPGSV,3,3,11,04,12,223,16,03,04,061,17,19,01,085,*48
$GPRMC,062851.000,A,3624.2559,N,02805.3645,E,0.32,37.44,140809,,,A*54
$GPGGA,062852.000,3624.2558,N,02805.3645,E,1,8,0.95,-15.6,M,33.2,M,,*4C
$GPGSA,A,3,08,02,13,10,04,25,23,28,,,,,1.28,0.95,0.86*0A
$GPGSV,3,1,11,08,66,270,15,07,63,028,,13,46,078,16,25,42,045,20*70
$GPGSV,3,2,11,10,33,312,18,28,29,179,23,02,16,255,23,23,13,100,16*7C
$GPGSV,3,3,11,04,12,223,16,03,04,061,18,19,01,085,*47
$GPRMC,062852.000,A,3624.2558,N,02805.3645,E,0.55,37.44,140809,,,A*57
$GPGGA,062853.000,3624.2557,N,02805.3645,E,1,8,0.95,-15.6,M,33.2,M,,*42
$GPGSA,A,3,08,02,13,10,04,25,23,28,,,,,1.28,0.95,0.86*0A
$GPGSV,3,1,12,08,66,270,16,07,63,028,,39,47,185,,13,46,078,16*77
$GPGSV,3,2,12,25,42,045,17,10,33,312,17,28,29,179,24,02,16,255,22*75
$GPGSV,3,3,12,23,13,100,15,04,12,223,16,03,04,061,17,19,01,085,*7D
$GPRMC,062853.000,A,3624.2557,N,02805.3645,E,0.30,37.44,140809,,,A*5A
$GPGGA,062854.000,3624.2556,N,02805.3646,E,1,8,0.95,-15.6,M,33.2,M,,*47
$GPGSA,A,3,08,02,13,10,04,25,23,28,,,,,1.28,0.95,0.86*0A
$GPGSV,3,1,12,08,66,270,15,07,63,028,,39,47,185,,13,46,078,17*75
$GPGSV,3,2,12,25,42,045,16,10,34,312,16,28,29,179,24,02,16,255,23*73
$GPGSV,3,3,12,23,13,100,15,04,12,223,17,03,04,061,16,19,01,085,*7D
$GPRMC,062854.000,A,3624.2556,N,02805.3646,E,0.07,37.44,140809,,,A*5B
$GPGGA,062855.000,3624.2556,N,02805.3645,E,1,8,0.95,-15.6,M,33.2,M,,*45
$GPGSA,A,3,08,02,13,10,04,25,23,28,,,,,1.28,0.95,0.86*0A
$GPGSV,3,1,12,08,66,270,14,07,63,028,,39,47,185,,13,46,078,16*75
$GPGSV,3,2,12,25,42,045,15,10,34,312,16,28,29,179,15,02,16,255,24*75
$GPGSV,3,3,12,23,13,100,15,04,12,223,16,03,04,061,16,19,01,085,*7C
$GPRMC,062855.000,A,3624.2556,N,02805.3645,E,0.43,37.44,140809,,,A*59
$GPGGA,062856.000,3624.2556,N,02805.3644,E,1,8,0.95,-15.6,M,33.2,M,,*47
$GPGSA,A,3,08,02,13,10,04,25,23,28,,,,,1.28,0.95,0.86*0A
$GPGSV,3,1,12,08,66,270,14,07,63,028,,39,47,185,,13,46,078,16*75
$GPGSV,3,2,12,25,42,045,16,10,34,312,16,28,29,179,16,02,16,255,24*75
$GPGSV,3,3,12,23,13,100,15,04,12,223,15,03,04,061,16,19,01,085,*7F
$GPRMC,062856.000,A,3624.2556,N,02805.3644,E,0.63,260.86,140809,,,A*67
$GPGGA,062857.000,3624.2554,N,02805.3637,E,1,8,0.95,-15.5,M,33.2,M,,*43
$GPGSA,A,3,08,02,13,10,04,25,23,28,,,,,1.28,0.95,0.86*0A
$GPGSV,3,1,12,08,66,270,14,07,63,028,,39,47,185,,13,45,078,16*76
$GPGSV,3,2,12,25,42,045,16,10,34,312,16,28,29,179,16,02,16,255,24*75
$GPGSV,3,3,12,23,13,100,15,04,12,223,14,03,04,061,16,19,01,085,*7E
$GPRMC,062857.000,A,3624.2554,N,02805.3637,E,0.83,263.80,140809,,,A*6B
$GPGGA,062858.000,3624.2549,N,02805.3631,E,1,8,0.95,-15.5,M,33.2,M,,*46
$GPGSA,A,3,08,02,13,10,04,25,23,28,,,,,1.28,0.95,0.86*0A
$GPGSV,3,1,12,08,66,270,14,07,63,028,,39,47,185,,13,45,078,16*76
$GPGSV,3,2,12,25,42,045,16,10,34,312,16,28,29,179,18,02,16,255,24*7B
$GPGSV,3,3,12,23,13,100,15,04,12,223,15,03,04,061,16,19,01,085,*7F
$GPRMC,062858.000,A,3624.2549,N,02805.3631,E,0.87,253.14,140809,,,A*64
$GPGGA,062859.000,3624.2543,N,02805.3621,E,1,8,0.95,-15.5,M,33.2,M,,*4C
$GPGSA,A,3,08,02,13,10,04,25,23,28,,,,,1.28,0.95,0.86*0A
$GPGSV,3,1,12,08,66,270,14,07,63,028,,39,47,185,,13,45,078,16*76
$GPGSV,3,2,12,25,42,045,15,10,34,312,17,28,29,179,20,02,16,255,24*72
$GPGSV,3,3,12,23,13,100,15,04,12,223,24,03,04,061,16,19,01,085,*7D
$GPRMC,062859.000,A,3624.2543,N,02805.3621,E,1.06,262.20,140809,,,A*63
$GPGGA,062900.000,3624.2533,N,02805.3618,E,1,8,0.95,-15.4,M,33.2,M,,*4D
$GPGSA,A,3,08,02,13,10,04,25,23,28,,,,,1.28,0.95,0.86*0A
$GPGSV,3,1,12,08,66,270,14,07,63,028,,39,47,185,,13,45,078,16*76
$GPGSV,3,2,12,25,42,045,15,10,34,312,17,28,29,179,22,02,16,255,23*77
$GPGSV,3,3,12,23,13,100,14,04,12,223,17,03,04,061,16,19,01,085,*7C
$GPRMC,062900.000,A,3624.2533,N,02805.3618,E,1.02,244.65,140809,,,A*62
$GPGGA,062901.000,3624.2526,N,02805.3619,E,1,8,0.95,-15.2,M,33.2,M,,*4F
$GPGSA,A,3,08,02,13,10,04,25,23,28,,,,,1.28,0.95,0.86*0A
$GPGSV,3,1,12,08,66,270,15,07,63,028,,39,47,185,,13,45,078,17*76
$GPGSV,3,2,12,25,42,045,15,10,34,312,16,28,29,179,23,02,16,255,22*76
$GPGSV,3,3,12,23,13,100,14,04,12,223,17,03,04,061,16,19,01,085,*7C
$GPRMC,062901.000,A,3624.2526,N,02805.3619,E,1.00,219.50,140809,,,A*6A
$GPGGA,062902.000,3624.2524,N,02805.3619,E,1,7,1.17,-15.1,M,33.2,M,,*49
$GPGSA,A,3,08,02,13,10,04,25,28,,,,,,1.49,1.17,0.92*02
$GPGSV,3,1,11,08,66,270,16,07,63,028,,13,45,078,18,25,42,045,16*7B
$GPGSV,3,2,11,10,34,312,16,28,29,179,24,02,16,255,21,23,13,100,*77
$GPGSV,3,3,11,04,12,223,17,03,04,061,16,19,01,085,*48
$GPRMC,062902.000,A,3624.2524,N,02805.3619,E,0.73,229.94,140809,,,A*65
$GPGGA,062903.000,3624.2528,N,02805.3620,E,1,7,1.17,-15.1,M,33.2,M,,*4E
$GPGSA,A,3,08,02,13,10,04,25,28,,,,,,1.49,1.17,0.92*02
